route_reference,stop_reference,route_short_name,stop_lat,stop_lon,stop_name,name,lat,lon,stop_id,route_id,line_id
C00619,15326,07,48.880333317134856,2.6796569181521095,Château,Pomponne Château,48.8803323,2.6796626999999997,StopPoint:node:2997978392,Route:relation:3941999,Line:relation:6991441
C00619,15327,07,48.88007994450275,2.679072166899974,Château,Pomponne Château,48.8800332,2.6789191,StopPoint:node:1936537148,Route:relation:8116126,Line:relation:6991441
C00619,15332,07,48.88144316652623,2.691335683192237,Mairie,Pomponne Mairie,48.881441099999996,2.6913855,StopPoint:node:1936537165,Route:relation:3941999,Line:relation:6991441
C00619,15333,07,48.88135292069565,2.691213499151435,Mairie,Pomponne Mairie,48.8813351,2.6911677999999997,StopPoint:node:1936537140,Route:relation:8116126,Line:relation:6991441
C00619,15441,07,48.888972277165955,2.6589021271123836,Chapelle,Chapelle,48.8888344,2.6589301,StopPoint:node:4853964349,Route:relation:3941999,Line:relation:6991441
C00619,15441,07,48.888972277165955,2.6589021271123836,Chapelle,Chapelle,48.8888344,2.6589301,StopPoint:node:4853964349,Route:relation:8116126,Line:relation:6991441
C00619,15464,07,48.8821049036875,2.7004812683785797,Chabanneau,Chabanneau,48.882092199999995,2.7004858,StopPoint:node:2997978393,Route:relation:8116126,Line:relation:6991441
C00619,15482,07,48.883950447205784,2.660762262901969,Champs - Clos,Champs - Clos,48.883921099999995,2.6605387,StopPoint:node:4332648375,Route:relation:3941999,Line:relation:6991441
C00619,15482,07,48.883950447205784,2.660762262901969,Champs - Clos,Champs - Clos,48.883921099999995,2.6605387,StopPoint:node:4332648375,Route:relation:8116126,Line:relation:6991441
C00619,15485,07,48.88679424903155,2.6879492964587874,Petits Prés,Petits Prés,48.8867706,2.6879839,StopPoint:node:2997978394,Route:relation:3941999,Line:relation:6991441
C00619,15485,07,48.88679424903155,2.6879492964587874,Petits Prés,Petits Prés,48.8867706,2.6879839,StopPoint:node:2997978394,Route:relation:8116126,Line:relation:6991441
C00619,15525,07,48.882806627498724,2.707867840197386,Cornilliot (accès SNCF),Cornilliot (accès SNCF),48.8827303,2.7078767999999998,StopPoint:node:1633694656,Route:relation:3941999,Line:relation:6991441
C00619,15528,07,48.888120951908704,2.6897687319277,Cornouillers,Cornouillers,48.8881483,2.6899767999999997,StopPoint:node:4187201572,Route:relation:3941999,Line:relation:6991441
C00619,15528,07,48.888120951908704,2.6897687319277,Cornouillers,Cornouillers,48.8881483,2.6899767999999997,StopPoint:node:4187201572,Route:relation:8116126,Line:relation:6991441
C00619,15639,07,48.881577707940515,2.6612685975505728,Renaissance,Renaissance,48.8815788,2.6612229,StopPoint:node:2997978391,Route:relation:3941999,Line:relation:6991441
C00619,15639,07,48.881577707940515,2.6612685975505728,Renaissance,Renaissance,48.8815788,2.6612229,StopPoint:node:2997978391,Route:relation:8116126,Line:relation:6991441
C00619,15754,07,48.88493136565299,2.690905916299151,Les Chênes,Les Chênes,48.884695099999995,2.6900732,StopPoint:node:4853964350,Route:relation:3941999,Line:relation:6991441
C00619,15754,07,48.88493136565299,2.690905916299151,Les Chênes,Les Chênes,48.884695099999995,2.6900732,StopPoint:node:4853964350,Route:relation:8116126,Line:relation:6991441
C00619,21144,07,48.882512252081135,2.7088512639334144,Gare de Lagny Thorigny (Rue R. Poincaré),Gare de Lagny - Thorigny (Rue Poincaré),48.882627,2.7106095999999997,StopPoint:node:9909976183,Route:relation:3941999,Line:relation:6991441
C00619,21144,07,48.882512252081135,2.7088512639334144,Gare de Lagny Thorigny (Rue R. Poincaré),Gare de Lagny - Thorigny (Rue Poincaré),48.882627,2.7106095999999997,StopPoint:node:9909976183,Route:relation:8116126,Line:relation:6991441
C00619,21522,07,48.88230037767851,2.7031391010746404,Rue de la Gare,Rue de la Gare,48.882379199999995,2.7053069,StopPoint:node:9909976182,Route:relation:3941999,Line:relation:6991441
C00619,23040,07,48.87965011114756,2.6731026855012088,Bois de la Marne,Bois de la Marne,48.879657599999994,2.6728452,StopPoint:node:1936537166,Route:relation:3941999,Line:relation:6991441
C00619,23041,07,48.879504882736924,2.6726127383465554,Bois de la Marne,Bois de la Marne,48.8795121,2.6726226,StopPoint:node:1936537164,Route:relation:8116126,Line:relation:6991441
C00619,462720,07,48.88230486057717,2.7049526204779872,Passerelle (accès SNCF),Thorigny-sur-Marne - Passerelle (accès SNCF),48.8822549,2.7049032,StopPoint:node:9909976180,Route:relation:8116126,Line:relation:6991441
C00620,15213,12,48.889475706274546,2.7137627584414954,Les Blancherons,Les Blancherons,48.8894715,2.7137303,StopPoint:node:1633681197,Route:relation:3069536,Line:relation:6991440
C00620,15224,12,48.89018109420075,2.727001115306465,Dhuis,Dhuis,48.8903365,2.7270414,StopPoint:node:1636257219,Route:relation:3069536,Line:relation:6991440
C00620,15261,12,48.89016052284162,2.7219689041894917,Lièvre,Lièvre,48.8901888,2.7220751,StopPoint:node:1636259090,Route:relation:3069536,Line:relation:6991440
C00620,15282,12,48.88809579983427,2.727475712118485,Les Cordonniers,Les Cordonniers,48.888160899999995,2.7273619,StopPoint:node:1636253376,Route:relation:3069536,Line:relation:6991440
C00620,15336,12,48.89083426991082,2.725552073667911,Les Aubépines,Les Aubépines,48.8908511,2.7256327,StopPoint:node:1636259842,Route:relation:3069536,Line:relation:6991440
C00620,15348,12,48.888036552548584,2.721271112311526,Bordes,Bordes,48.8880293,2.7213043,StopPoint:node:1636251750,Route:relation:3069536,Line:relation:6991440
C00620,15351,12,48.88831294004914,2.7241198155910027,Sente des Vignes,Sente des Vignes,48.8883107,2.7239845,StopPoint:node:1636251753,Route:relation:3069536,Line:relation:6991440
C00620,15426,12,48.888362306078406,2.7107414077208887,Paul Doumer,Paul Doumer,48.888371,2.7106456999999997,StopPoint:node:1633681322,Route:relation:3069536,Line:relation:6991440
C00620,15469,12,48.88953601193919,2.7202539063451545,Les Ifs,Les Ifs,48.889568499999996,2.720351,StopPoint:node:2991570046,Route:relation:3069536,Line:relation:6991440
C00620,15533,12,48.89035759695586,2.717794692667117,Côteaux,Les Coteaux,48.8904005,2.7178340999999997,StopPoint:node:1636257214,Route:relation:3069536,Line:relation:6991440
C00620,15670,12,48.88428732235802,2.7140094559778984,Général Leclerc,Général Leclerc,48.884278599999995,2.7143102,StopPoint:node:1636250836,Route:relation:3069536,Line:relation:6991440
C00620,15695,12,48.88679126451029,2.71945044126417,Cimetière,Cimetière,48.8866863,2.71951,StopPoint:node:1636250835,Route:relation:3069536,Line:relation:6991440
C00620,15702,12,48.88608455672516,2.7172178369421154,Victor Hugo,Victor Hugo,48.8860713,2.7171661,StopPoint:node:1636250837,Route:relation:3069536,Line:relation:6991440
C00620,21144,12,48.882512252081135,2.7088512639334144,Gare de Lagny Thorigny (Rue R. Poincaré),Gare de Lagny - Thorigny (Rue Poincaré),48.8825521,2.7093819,StopPoint:node:4848176379,Route:relation:3069536,Line:relation:6991440
C00620,462720,12,48.88230486057717,2.7049526204779872,Passerelle (accès SNCF),Thorigny-sur-Marne - Passerelle (accès SNCF),48.8822549,2.7049032,StopPoint:node:9909976180,Route:relation:3069536,Line:relation:6991440
C00621,15334,13,48.82894805660614,2.6805720286939443,Portes de la Forêt,Portes de la Forêt,48.8289932,2.680692,StopPoint:node:2997349900,Route:relation:2545213,Line:relation:6116962
C00621,15335,13,48.82915722905364,2.681442541653926,Portes de la Forêt,Portes de la Forêt,48.8291411,2.681415,StopPoint:node:2997349901,Route:relation:6116961,Line:relation:6116962
C00621,15340,13,48.83318041654149,2.6759007045307763,Pré Longuet,Pré Longuet,48.8332577,2.67585,StopPoint:node:2094216252,Route:relation:2545213,Line:relation:6116962
C00621,15341,13,48.83364755225737,2.675707078646286,Pré Longuet,Pré Longuet,48.8336726,2.6756729999999997,StopPoint:node:2094216251,Route:relation:6116961,Line:relation:6116962
C00621,15344,13,48.83740422106491,2.6714602816992588,Poste,Collégien - Poste,48.8374472,2.6713492999999997,StopPoint:node:2094216225,Route:relation:2545213,Line:relation:6116962
C00621,15345,13,48.83784309410115,2.6708035602247895,Poste,Collégien - Poste,48.8378082,2.6708317999999998,StopPoint:node:2094216228,Route:relation:6116961,Line:relation:6116962
C00621,15419,13,48.82883667309749,2.6792786489386353,Des Carrières,Des Carrières,48.828844,2.679312,StopPoint:node:5914093626,Route:relation:2545213,Line:relation:6116962
C00621,15419,13,48.82883667309749,2.6792786489386353,Des Carrières,Des Carrières,48.828844,2.679312,StopPoint:node:5914093626,Route:relation:6116961,Line:relation:6116962
C00621,15421,13,48.7697578805573,2.6899144228997334,Gare d'Ozoir-la-Ferrière,Gare d'Ozoir-la-Ferrière,48.769783999999994,2.6898752999999997,StopPoint:node:4864859132,Route:relation:2545213,Line:relation:6116962
C00621,15421,13,48.7697578805573,2.6899144228997334,Gare d'Ozoir-la-Ferrière,Gare d'Ozoir-la-Ferrière,48.769783999999994,2.6898752999999997,StopPoint:node:4864859132,Route:relation:6116961,Line:relation:6116962
C00621,15429,13,48.77634721351261,2.678485371997292,Bois Prieur,Bois Prieur,48.7763267,2.6784486,StopPoint:node:5392630997,Route:relation:2545213,Line:relation:6116962
C00621,15430,13,48.776365530585004,2.6786077312663883,Bois Prieur,Bois Prieur,48.776243799999996,2.6786179,StopPoint:node:5392631673,Route:relation:6116961,Line:relation:6116962
C00621,15453,13,48.800157780998724,2.7043825994521473,Mairie,Pontcarré Mairie,48.800229699999996,2.7043665,StopPoint:node:3226727439,Route:relation:2545213,Line:relation:6116962
C00621,15454,13,48.800643401547575,2.7043662330177485,Mairie,Pontcarré Mairie,48.800645599999996,2.7044143999999997,StopPoint:node:3226727443,Route:relation:6116961,Line:relation:6116962
C00621,15470,13,48.839430167304435,2.669076851641673,Eglise / Collégien,Collégien - Église,48.839442899999995,2.6690576999999998,StopPoint:node:2094233594,Route:relation:2545213,Line:relation:6116962
C00621,15471,13,48.83942155085842,2.6692131511617623,Eglise / Collégien,Collégien - Église,48.8394262,2.6692088999999997,StopPoint:node:2094233593,Route:relation:6116961,Line:relation:6116962
C00621,15529,13,48.839935052981176,2.6599042774663912,Les Marchais,Les Marchais,48.8399418,2.6598924,StopPoint:node:2995657990,Route:relation:6116961,Line:relation:6116962
C00621,15530,13,48.83971925344964,2.6599193101245295,Les Marchais,Les Marchais,48.8397271,2.6598281,StopPoint:node:2995657991,Route:relation:2545213,Line:relation:6116962
C00621,15697,13,48.838911874765415,2.6543522159153237,Gare de Torcy,Torcy RER,48.8393066,2.6542586,StopPoint:node:3900948965,Route:relation:6116961,Line:relation:6116962
C00621,15737,13,48.83576512137093,2.6739092232548636,Lavoir,Collégien - Lavoir,48.8357859,2.6738839999999997,StopPoint:node:2094214108,Route:relation:2545213,Line:relation:6116962
C00621,15738,13,48.835424489389396,2.6743200571624683,Lavoir,Collégien - Lavoir,48.835409899999995,2.6743775,StopPoint:node:2094214105,Route:relation:6116961,Line:relation:6116962
C00621,15743,13,48.829442025780416,2.6769728292821906,Clos des Charmes,Clos des Charmes,48.829443,2.677002,StopPoint:node:5914093629,Route:relation:2545213,Line:relation:6116962
C00621,15743,13,48.829442025780416,2.6769728292821906,Clos des Charmes,Clos des Charmes,48.829443,2.677002,StopPoint:node:5914093629,Route:relation:6116961,Line:relation:6116962
C00621,15747,13,48.8298505457842,2.6717667029952588,Poirier de la Butte,Poirier de la Butte,48.8297953,2.671791,StopPoint:node:5914093628,Route:relation:2545213,Line:relation:6116962
C00621,15747,13,48.8298505457842,2.6717667029952588,Poirier de la Butte,Poirier de la Butte,48.8297953,2.671791,StopPoint:node:5914093628,Route:relation:6116961,Line:relation:6116962
C00621,16190,13,48.795261406819186,2.704571726439515,Fleuriste,Fleuriste,48.7952228,2.7047588,StopPoint:node:3226727441,Route:relation:6116961,Line:relation:6116962
C00621,16190,13,48.795261406819186,2.704571726439515,Fleuriste,Fleuriste,48.7951043,2.7039967,StopPoint:node:3226727444,Route:relation:2545213,Line:relation:6116962
C00621,16191,13,48.79526077780756,2.70477577411701,Fleuriste,Fleuriste,48.7952228,2.7047588,StopPoint:node:3226727441,Route:relation:6116961,Line:relation:6116962
C00621,16191,13,48.79526077780756,2.70477577411701,Fleuriste,Fleuriste,48.7951043,2.7039967,StopPoint:node:3226727444,Route:relation:2545213,Line:relation:6116962
C00621,16423,13,48.77857309594789,2.6801191141221876,Anne Frank,Anne Frank,48.778554199999995,2.6801558,StopPoint:node:5392631019,Route:relation:6116961,Line:relation:6116962
C00621,16424,13,48.77820338136407,2.6797591222914883,Anne Frank,Anne Frank,48.778247099999994,2.6797763,StopPoint:node:5392632050,Route:relation:2545213,Line:relation:6116962
C00621,35865,13,48.84088314762169,2.6676506405739646,Cèdre,Cèdre,48.840878499999995,2.6677481,StopPoint:node:2995657992,Route:relation:2545213,Line:relation:6116962
C00621,35866,13,48.840973004473085,2.6676228178220955,Cèdre,Cèdre,48.840995,2.6677401,StopPoint:node:2995657993,Route:relation:6116961,Line:relation:6116962
C00621,419931,13,48.8281759004682,2.6743789605730157,Moulin,Moulin,48.828184,2.674407,StopPoint:node:5914093627,Route:relation:2545213,Line:relation:6116962
C00621,419931,13,48.8281759004682,2.6743789605730157,Moulin,Moulin,48.828184,2.674407,StopPoint:node:5914093627,Route:relation:6116961,Line:relation:6116962
C00621,482433,13,48.838537105690015,2.6553765207068514,Gare de Torcy,Torcy RER,48.8385344,2.6553747999999997,StopPoint:node:3900938555,Route:relation:2545213,Line:relation:6116962
C00622,15252,04,48.885018665658784,2.730778181344736,Alger / Lions,Alger Lions,48.8850158,2.7307319999999997,StopPoint:node:4320023181,Route:relation:3936088,Line:relation:6991442
C00622,15257,04,48.883760996697134,2.727402944787699,Allée du Château,Allée du Château,48.8837396,2.7273083,StopPoint:node:2991570049,Route:relation:3936088,Line:relation:6991442
C00622,15268,04,48.88769501766672,2.729196080829863,Lycée Perdonnet,Lycée Perdonnet,48.8876953,2.7291639,StopPoint:node:2758353200,Route:relation:3936088,Line:relation:6991442
C00622,15291,04,48.88561615247342,2.740716118362455,Arthur Boucher,Arthur Boucher,48.8856298,2.7406202,StopPoint:node:4326543113,Route:relation:3936088,Line:relation:6991442
C00622,15356,04,48.88298630498089,2.7152574629707367,Rue du Port,Rue du Port,48.8829594,2.7150878,StopPoint:node:2991570043,Route:relation:3936088,Line:relation:6991442
C00622,15357,04,48.883030750594315,2.7150390462029166,Rue du Port,Rue du Port,48.883041299999995,2.7150990999999998,StopPoint:node:2991570042,Route:relation:3936088,Line:relation:6991442
C00622,15440,04,48.88679860386242,2.722600512319896,Chantrennes,Chantrennes,48.8868328,2.7226862,StopPoint:node:2991570052,Route:relation:3936088,Line:relation:6991442
C00622,15456,04,48.88699987486709,2.728013286449926,Lycée Perdonnet,Lycée Perdonnet (scolaire),48.8869926,2.7279676999999998,StopPoint:node:2991570050,Route:relation:3936088,Line:relation:6991442
C00622,15458,04,48.889476030607575,2.7374511651866174,Daniel Leduc,Daniel Leduc,48.8894914,2.7374772999999997,StopPoint:node:4853919870,Route:relation:3936088,Line:relation:6991442
C00622,15459,04,48.887221374184804,2.726552975923219,Les Fontaines,Les Fontaines,48.8872132,2.7263922999999997,StopPoint:node:2991570051,Route:relation:3936088,Line:relation:6991442
C00622,15497,04,48.88526414122897,2.7360133025991775,Place du Général Leclerc,Place du Général Leclerc,48.885266599999994,2.7360729,StopPoint:node:2758353246,Route:relation:3936088,Line:relation:6991442
C00622,15525,04,48.882806627498724,2.707867840197386,Cornilliot (accès SNCF),Cornilliot (accès SNCF),48.8827303,2.7078767999999998,StopPoint:node:1633694656,Route:relation:3936088,Line:relation:6991442
C00622,15552,04,48.88811741794916,2.7330804808782942,Place des Ormes,Place des Ormes,48.888158999999995,2.7330983,StopPoint:node:2758353269,Route:relation:3936088,Line:relation:6991442
C00622,15670,04,48.88428732235802,2.7140094559778984,Général Leclerc,Général Leclerc,48.884278599999995,2.7143102,StopPoint:node:1636250836,Route:relation:3936088,Line:relation:6991442
C00622,15676,04,48.88526818257754,2.7337769070363698,Gambetta,Gambetta,48.8852824,2.7337342,StopPoint:node:4853919872,Route:relation:3936088,Line:relation:6991442
C00622,15694,04,48.88652281786891,2.7200246319327,Cimetière,Cimetière,48.8865553,2.7201364999999997,StopPoint:node:2991570045,Route:relation:3936088,Line:relation:6991442
C00622,15696,04,48.885649269013015,2.743565988039253,Hazard,Hazard,48.885661,2.7435707,StopPoint:node:2991961865,Route:relation:3936088,Line:relation:6991442
C00622,15716,04,48.88942591125123,2.7433701011768,Juliette Vadel,Juliette Vadel,48.8894374,2.743276,StopPoint:node:4332375068,Route:relation:3936088,Line:relation:6991442
C00622,15726,04,48.88341295467772,2.720764057045782,La Paix,La Paix,48.8834185,2.7206639,StopPoint:node:2991570048,Route:relation:3936088,Line:relation:6991442
C00622,15727,04,48.88367324071801,2.7205444849834177,La Paix,La Paix,48.8835978,2.7205925,StopPoint:node:2991570047,Route:relation:3936088,Line:relation:6991442
C00622,15736,04,48.88724253221325,2.7442672630577296,Lambuis,Lambuis,48.8872066,2.7441345,StopPoint:node:4853919871,Route:relation:3936088,Line:relation:6991442
C00622,420673,04,48.88261421841998,2.710105183225797,Gare de Lagny Thorigny (Rue R. Poincaré),Gare de Lagny - Thorigny (Rue Poincaré),48.882594499999996,2.7101861,StopPoint:node:4848176378,Route:relation:3936088,Line:relation:6991442
C00623,15293,15,48.940624334589884,2.6945883686912078,Arzillières,Arzillières,48.9406821,2.6948735,StopPoint:node:4328359726,Route:relation:2659171,Line:relation:6116990
C00623,15299,15,48.88859915881653,2.704616934268775,Parmentier,Parmentier,48.8884159,2.7044544999999998,StopPoint:node:1636271465,Route:relation:2659171,Line:relation:6116990
C00623,15300,15,48.888625700011154,2.7044394984015283,Parmentier,Parmentier,48.888636399999996,2.7044089,StopPoint:node:1636271466,Route:relation:6116989,Line:relation:6116990
C00623,15313,15,48.94555627486728,2.6891531107090985,Mairie,Mairie de Claye,48.945564,2.6891556999999997,StopPoint:node:5442482917,Route:relation:2659171,Line:relation:6116990
C00623,15313,15,48.94555627486728,2.6891531107090985,Mairie,Mairie de Claye,48.945564,2.6891556999999997,StopPoint:node:5442482917,Route:relation:6116989,Line:relation:6116990
C00623,15402,15,48.89916081548718,2.706207459502438,Mairie,Carnetin - Mairie,48.8991907,2.7063392,StopPoint:node:2702501559,Route:relation:2659171,Line:relation:6116990
C00623,15408,15,48.88686888129988,2.7031539671733724,Carnot,Carnot,48.886756299999995,2.7030866,StopPoint:node:1636270789,Route:relation:2659171,Line:relation:6116990
C00623,15409,15,48.88683247007553,2.702976895525788,Carnot,Carnot,48.886930899999996,2.7029847,StopPoint:node:1636270788,Route:relation:6116989,Line:relation:6116990
C00623,15415,15,48.89105917585481,2.7066213978725373,Cerisiers,Les Cerisiers,48.891028,2.7066203,StopPoint:node:1634895486,Route:relation:2659171,Line:relation:6116990
C00623,15416,15,48.89006755045319,2.7056450701087735,Cerisiers,Les Cerisiers,48.890088,2.7056814,StopPoint:node:1634895487,Route:relation:6116989,Line:relation:6116990
C00623,15446,15,48.92281327431972,2.7179871256989996,Neflier,Château Le Louche,48.922727699999996,2.7179151,StopPoint:node:4326628436,Route:relation:2659171,Line:relation:6116990
C00623,15447,15,48.924533393787264,2.7190558948236343,Neflier,Château de Louche,48.9245309,2.7190452,StopPoint:node:2705290527,Route:relation:6116989,Line:relation:6116990
C00623,15449,15,48.884391252197084,2.712345266751656,Mairie - Ecole,Mairie - École,48.8844176,2.7123991999999997,StopPoint:node:1636270543,Route:relation:2659171,Line:relation:6116990
C00623,15474,15,48.89329353576566,2.7082999882709364,Cures,Cures,48.893333399999996,2.7083442,StopPoint:node:2702501467,Route:relation:6116989,Line:relation:6116990
C00623,15475,15,48.91851346766855,2.7136576224290105,Croix Saint-Louis,Croix Saint-Louis,48.9184388,2.7136307,StopPoint:node:4325193408,Route:relation:2659171,Line:relation:6116990
C00623,15481,15,48.92911444371102,2.7206689101130563,Douy,Douy,48.929224,2.7202926,StopPoint:node:4330845301,Route:relation:2659171,Line:relation:6116990
C00623,15483,15,48.89404017445552,2.7083912763868425,Pointes,Pointes,48.8940616,2.7084246999999997,StopPoint:node:2702501566,Route:relation:2659171,Line:relation:6116990
C00623,15556,15,48.926393143547855,2.7145149753317908,Croix Gauthier,Croix Gauthier,48.926279099999995,2.7143818,StopPoint:node:4405432617,Route:relation:6116989,Line:relation:6116990
C00623,15670,15,48.88428732235802,2.7140094559778984,Général Leclerc,Général Leclerc,48.884278599999995,2.7143102,StopPoint:node:1636250836,Route:relation:2659171,Line:relation:6116990
C00623,15675,15,48.885058977403766,2.705864291017746,Jeanne d'Arc,Jeanne d'Arc,48.885031399999995,2.7057070999999997,StopPoint:node:1636270541,Route:relation:6116989,Line:relation:6116990
C00623,15691,15,48.89710513728423,2.7114293679445987,Hauts de Vallières,Hauts de Vallières,48.8971428,2.7115028999999997,StopPoint:node:2991961864,Route:relation:6116989,Line:relation:6116990
C00623,15712,15,48.885059647069625,2.7061370151641393,Jeanne d'Arc,Jeanne d'Arc,48.8850737,2.7061631,StopPoint:node:1636270537,Route:relation:2659171,Line:relation:6116990
C00623,15721,15,48.920010050247555,2.715245916685439,La Chanée,La Chanée,48.9201092,2.7153533999999997,StopPoint:node:4321180765,Route:relation:2659171,Line:relation:6116990
C00623,15723,15,48.90182345008878,2.70650617060052,La Croix,Carnetin - La Croix,48.901948,2.7067691,StopPoint:node:2702501564,Route:relation:2659171,Line:relation:6116990
C00623,15732,15,48.91240886503602,2.7105395464467903,La Violette,La Violette,48.912458,2.7105373,StopPoint:node:4325504907,Route:relation:2659171,Line:relation:6116990
C00623,16888,15,48.9419592256412,2.6822841000822137,Pasteur (Collège Les Tilleuls),Pasteur,48.9419614,2.6823240999999998,StopPoint:node:2683911604,Route:relation:2659171,Line:relation:6116990
C00623,16888,15,48.9419592256412,2.6822841000822137,Pasteur (Collège Les Tilleuls),Pasteur,48.9419614,2.6823240999999998,StopPoint:node:2683911604,Route:relation:6116989,Line:relation:6116990
C00623,420675,15,48.88252980676045,2.7086739012710943,Gare de Lagny Thorigny (Rue R. Poincaré),Gare de Lagny - Thorigny (Rue Poincaré),48.8825121,2.7088281999999997,StopPoint:node:1638700212,Route:relation:2659171,Line:relation:6116990
C00623,420675,15,48.88252980676045,2.7086739012710943,Gare de Lagny Thorigny (Rue R. Poincaré),Gare de Lagny - Thorigny (Rue Poincaré),48.8825121,2.7088281999999997,StopPoint:node:1638700212,Route:relation:6116989,Line:relation:6116990
C00623,462720,15,48.88230486057717,2.7049526204779872,Passerelle (accès SNCF),Thorigny-sur-Marne - Passerelle (accès SNCF),48.8822549,2.7049032,StopPoint:node:9909976180,Route:relation:6116989,Line:relation:6116990
C00625,15304,21,48.869735549658635,2.70255635303712,Beau Site,Beau Site,48.8697186,2.7025856999999998,StopPoint:node:2991570039,Route:relation:3937174,Line:relation:6117019
C00625,15305,21,48.86979021894385,2.7028423212958472,Beau Site,Beau Site,48.8697866,2.7029022,StopPoint:node:2991570038,Route:relation:6117018,Line:relation:6117019
C00625,15349,21,48.846538114195255,2.67350115679409,Rentilly,Rentilly,48.846529,2.6735197,StopPoint:node:3087647192,Route:relation:6117018,Line:relation:6117019
C00625,15350,21,48.84637456140865,2.6728889981157105,Rentilly,Rentilly,48.846306299999995,2.672781,StopPoint:node:5325639341,Route:relation:3937174,Line:relation:6117019
C00625,15354,21,48.84322411328057,2.6686167469441933,Rond-Point de Collégien,Rond-Point de Collégien,48.8433159,2.6686962,StopPoint:node:2094930626,Route:relation:6117018,Line:relation:6117019
C00625,15355,21,48.84320635323046,2.668698612694871,Rond-Point de Collégien,Rond-Point de Collégien,48.8433512,2.669018,StopPoint:node:2094930654,Route:relation:3937174,Line:relation:6117019
C00625,15374,21,48.875304661813196,2.703506186048347,Saint Joseph,Saint-Joseph,48.875318799999995,2.7034141,StopPoint:node:2131074444,Route:relation:6117018,Line:relation:6117019
C00625,15375,21,48.875394895592706,2.703628377198485,Saint Joseph,Saint-Joseph,48.8753868,2.7036757,StopPoint:node:2131074446,Route:relation:3937174,Line:relation:6117019
C00625,15379,21,48.8498644937812,2.6899692311166103,Mairie,Bussy-Saint-Martin Mairie,48.849774,2.6898353,StopPoint:node:2992242949,Route:relation:6117018,Line:relation:6117019
C00625,15380,21,48.849810605231966,2.6899968060861514,Mairie,Bussy-Saint-Martin Mairie,48.849669399999996,2.6900591,StopPoint:node:2792993100,Route:relation:3937174,Line:relation:6117019
C00625,15385,21,48.86634386125226,2.698459005439232,Tête Noire,Tête Noire,48.8665114,2.6985523,StopPoint:node:4330475789,Route:relation:6117018,Line:relation:6117019
C00625,15394,21,48.86285393318401,2.694689900998013,Le Calvaire,Le Calvaire,48.862811,2.6946187999999998,StopPoint:node:2992242945,Route:relation:6117018,Line:relation:6117019
C00625,15406,21,48.87908609855089,2.701630321021339,Verdun,Verdun,48.8790446,2.701679,StopPoint:node:2991484603,Route:relation:3937174,Line:relation:6117019
C00625,15424,21,48.8605580209795,2.6901645677119674,Pasteur/Pierres,Pasteur - Pierres,48.860593599999994,2.6901766,StopPoint:node:2992242948,Route:relation:6117018,Line:relation:6117019
C00625,15425,21,48.86041867042201,2.6919236608554904,Pasteur,Pasteur,48.8604571,2.6919847,StopPoint:node:2992242947,Route:relation:3937174,Line:relation:6117019
C00625,15509,21,48.869776220977016,2.708118138339372,Peduzzi,Peduzzi,48.870585,2.7072411,StopPoint:node:796509647,Route:relation:6117018,Line:relation:6117019
C00625,15510,21,48.870520445673876,2.7072142172367126,Peduzzi,Peduzzi,48.869675,2.708199,StopPoint:node:796509635,Route:relation:3937174,Line:relation:6117019
C00625,15529,21,48.839935052981176,2.6599042774663912,Les Marchais,Les Marchais,48.8399418,2.6598924,StopPoint:node:2995657990,Route:relation:6117018,Line:relation:6117019
C00625,15530,21,48.83971925344964,2.6599193101245295,Les Marchais,Les Marchais,48.8397271,2.6598281,StopPoint:node:2995657991,Route:relation:3937174,Line:relation:6117019
C00625,15534,21,48.868601350998325,2.705766370272825,Tous Vents,Touvents,48.8685896,2.7059246,StopPoint:node:2991570037,Route:relation:3937174,Line:relation:6117019
C00625,15537,21,48.8687541993126,2.705751874798483,Tous Vents,Touvents,48.8687653,2.705664,StopPoint:node:2991570036,Route:relation:6117018,Line:relation:6117019
C00625,15561,21,48.873530621264685,2.709869438462858,Saint-Laurent (Rue Brébion),Saint-Laurent - Brébion,48.8735219,2.7098388,StopPoint:node:796509688,Route:relation:3937174,Line:relation:6117019
C00625,15585,21,48.87336506972805,2.708357060666876,Saint-Laurent (Rue Brébion),Saint-Laurent (rue Brébion),48.8733644,2.7084288,StopPoint:node:796509682,Route:relation:6117018,Line:relation:6117019
C00625,15591,21,48.873710451371224,2.7135903608592002,Roses,Roses,48.873917399999996,2.7130324999999997,StopPoint:node:4321594060,Route:relation:6117018,Line:relation:6117019
C00625,15593,21,48.871490739321914,2.7142569422168767,Chrysanthèmes,Chrysanthèmes,48.871479799999996,2.7141915,StopPoint:node:4322872325,Route:relation:6117018,Line:relation:6117019
C00625,15597,21,48.86932369907042,2.7106426448166387,André Le Nôtre,André Le Nôtre,48.869371699999995,2.7106281,StopPoint:node:796509589,Route:relation:6117018,Line:relation:6117019
C00625,15598,21,48.869168903287196,2.7098528351159463,André Le Nôtre,André le Nôtre,48.8691745,2.7097392,StopPoint:node:796509595,Route:relation:3937174,Line:relation:6117019
C00625,15681,21,48.86111135560604,2.695517920845778,Mairie,Gouvernes Mairie,48.8611322,2.6955123999999997,StopPoint:node:2992242946,Route:relation:3937174,Line:relation:6117019
C00625,15687,21,48.87619812970537,2.7011560383293856,Lagny Thorigny / Foch,Foch,48.876372599999996,2.7010376,StopPoint:node:2991484607,Route:relation:6117018,Line:relation:6117019
C00625,15697,21,48.838911874765415,2.6543522159153237,Gare de Torcy,Torcy RER,48.8393066,2.6542586,StopPoint:node:3900948965,Route:relation:6117018,Line:relation:6117019
C00625,35865,21,48.84088314762169,2.6676506405739646,Cèdre,Cèdre,48.840878499999995,2.6677481,StopPoint:node:2995657992,Route:relation:3937174,Line:relation:6117019
C00625,35866,21,48.840973004473085,2.6676228178220955,Cèdre,Cèdre,48.840995,2.6677401,StopPoint:node:2995657993,Route:relation:6117018,Line:relation:6117019
C00625,412406,21,48.881945814773225,2.70522736628953,Gare de Lagny Thorigny,Gare de Lagny - Thorigny,48.8819003,2.7051164,StopPoint:node:4848176377,Route:relation:3937174,Line:relation:6117019
C00625,417795,21,48.88194524383408,2.7049955646352575,Gare de Lagny Thorigny,Gare de Lagny - Thorigny,48.881848299999994,2.7051097,StopPoint:node:4848176373,Route:relation:6117018,Line:relation:6117019
C00625,471093,21,48.87711636622521,2.7015325305763582,Foch / Paix Notre Dame,Foch - Paix Notre-Dame,48.8771437,2.7015058,StopPoint:node:2991484606,Route:relation:3937174,Line:relation:6117019
C00625,482434,21,48.83843876830532,2.655581534403787,Gare de Torcy,Torcy RER,48.8384335,2.6555784,StopPoint:node:4136423192,Route:relation:3937174,Line:relation:6117019
C00626,15241,22,48.838973251831085,2.71898573626939,Lycée Martin Luther King,Lycée Martin Luther King,48.8389946,2.7190357,StopPoint:node:4318070043,Route:relation:3955545,Line:relation:6120285
C00626,15242,22,48.8387466567915,2.7182376229679766,Lycée Martin Luther King,Lycée Martin Luther King,48.8387804,2.7181976,StopPoint:node:4318070042,Route:relation:6120284,Line:relation:6120285
C00626,15311,22,48.842499790602155,2.704523949256699,Place du Clos,Place du Clos,48.8425373,2.7047507,StopPoint:node:1494067866,Route:relation:6120284,Line:relation:6120285
C00626,15371,22,48.83642169363416,2.7087817416129583,Gare de Bussy-Saint-Georges,Gare de Bussy-Saint-Georges,48.8364088,2.7092046,StopPoint:node:6477009264,Route:relation:3955545,Line:relation:6120285
C00626,15371,22,48.83642169363416,2.7087817416129583,Gare de Bussy-Saint-Georges,Gare de Bussy-Saint-Georges,48.8364088,2.7092046,StopPoint:node:6477009264,Route:relation:6120284,Line:relation:6120285
C00626,15434,22,48.856699523114884,2.73902010777956,Mairie,Chanteloup Mairie,48.856764899999995,2.7389522,StopPoint:node:603019627,Route:relation:3955545,Line:relation:6120285
C00626,15435,22,48.85698691762992,2.7388414908891194,Mairie,Chanteloup Mairie,48.856977199999996,2.7388806,StopPoint:node:603019611,Route:relation:6120284,Line:relation:6120285
C00626,15520,22,48.839790150592556,2.7260933430714593,Antoine Bourdelle,Antoine Bourdelle,48.8398513,2.7261291,StopPoint:node:4318070056,Route:relation:3955545,Line:relation:6120285
C00626,15521,22,48.83965409590429,2.7255899513756483,Antoine Bourdelle,Antoine Bourdelle,48.839655799999996,2.7255922999999997,StopPoint:node:4318070053,Route:relation:6120284,Line:relation:6120285
C00626,15625,22,48.85623042854206,2.7553634207616,Clos du Chêne,Clos du Chêne,48.8562478,2.7552499999999998,StopPoint:node:2991961868,Route:relation:6120284,Line:relation:6120285
C00626,15626,22,48.85644620884608,2.7553351498926832,Clos du Chêne,Clos du Chêne,48.856493799999996,2.7553158,StopPoint:node:4590685704,Route:relation:3955545,Line:relation:6120285
C00626,15728,22,48.85105608284295,2.73689522985292,La Petite Jonchère,La Petite Jonchère,48.851042,2.7368867999999997,StopPoint:node:2299891683,Route:relation:3955545,Line:relation:6120285
C00626,15729,22,48.85088500215748,2.7368007015949485,La Petite Jonchère,La Petite Jonchère,48.8509065,2.7368196,StopPoint:node:2299891684,Route:relation:6120284,Line:relation:6120285
C00626,15755,22,48.8402479352584,2.729660597940015,Jacques de Thou,Jacques de Thou,48.8402791,2.7296904,StopPoint:node:4318070071,Route:relation:3955545,Line:relation:6120285
C00626,15756,22,48.840130622103885,2.7294840862561562,Jacques de Thou,Jacques de Thou,48.840117799999994,2.7294178,StopPoint:node:4318070066,Route:relation:6120284,Line:relation:6120285
C00626,15757,22,48.84411946053603,2.731602612288871,Louis Guibert,Louis Guibert,48.844099299999996,2.7316078,StopPoint:node:6683229782,Route:relation:3955545,Line:relation:6120285
C00626,15758,22,48.844164671324556,2.7317113849032824,Louis Guibert,Louis Guibert,48.8441031,2.7317660999999998,StopPoint:node:3687269559,Route:relation:6120284,Line:relation:6120285
C00626,22486,22,48.85113393851662,2.7703366984562745,Centre Hospitalier,Centre Hospitalier,48.8511935,2.7704082999999997,StopPoint:node:5225418004,Route:relation:6120284,Line:relation:6120285
C00626,22487,22,48.850420771924064,2.768936230083416,Centre Hospitalier,Centre Hospitalier,48.850358,2.76888,StopPoint:node:4610182108,Route:relation:3955545,Line:relation:6120285
C00626,22488,22,48.85319850588949,2.7730123191246627,Centre Urbain (accès RER),Centre Urbain (accès RER),48.853245699999995,2.7730737999999997,StopPoint:node:5225627092,Route:relation:6120284,Line:relation:6120285
C00626,22489,22,48.85323370242246,2.772603324916784,Centre Urbain (accès RER),Centre Urbain (accès RER),48.8531592,2.7725351,StopPoint:node:4323538095,Route:relation:3955545,Line:relation:6120285
C00626,22492,22,48.852457546338314,2.7619497493751424,Centre de Radiologie,Centre de Radiologie,48.8525109,2.7618423,StopPoint:node:4320084527,Route:relation:6120284,Line:relation:6120285
C00626,22493,22,48.85271845759319,2.7620030690410107,Centre de Radiologie,Centre de Radiologie,48.852678,2.7620739999999997,StopPoint:node:4590685706,Route:relation:3955545,Line:relation:6120285
C00626,23558,22,48.85920749974077,2.742646650855563,Le Cantou,Le Cantou,48.8589856,2.7429112,StopPoint:node:4610103959,Route:relation:3955545,Line:relation:6120285
C00626,23559,22,48.859062934940866,2.7423338848044336,Le Cantou,Le Cantou,48.8589451,2.7427181,StopPoint:node:4610103960,Route:relation:6120284,Line:relation:6120285
C00626,23560,22,48.86071405217126,2.7365329673273004,L'Orée du Bois,L'Orée du Bois,48.860611999999996,2.7362992,StopPoint:node:4326002128,Route:relation:3955545,Line:relation:6120285
C00626,23561,22,48.860452230378286,2.7360708734674866,L'Orée du Bois,L'Orée du Bois,48.860759099999996,2.7370921999999998,StopPoint:node:4610103967,Route:relation:6120284,Line:relation:6120285
C00626,419933,22,48.85500777077564,2.746919488081583,Les Rougeriots,Les Rougeriots,48.854909899999996,2.7469306,StopPoint:node:6683229783,Route:relation:3955545,Line:relation:6120285
C00626,419936,22,48.85499759451609,2.746360768815919,Les Rougeriots,Les Rougeriots,48.8551029,2.7464033999999997,StopPoint:node:4326772982,Route:relation:6120284,Line:relation:6120285
C00627,10533,23,48.879178372769104,2.7819376101406768,Parking Nord,Parking Nord,48.8791819,2.781911,StopPoint:node:5805223911,Route:relation:7449900,Line:relation:7003010
C00627,15239,23,48.88285651488297,2.772269440426566,Saint-Eloi,Saint-Éloi,48.8829366,2.7722420999999997,StopPoint:node:2992336950,Route:relation:7449900,Line:relation:7003010
C00627,15239,23,48.88285651488297,2.772269440426566,Saint-Eloi,Saint-Éloi,48.8829366,2.7722420999999997,StopPoint:node:2992336950,Route:relation:9700080,Line:relation:7003010
C00627,15240,23,48.88308118316468,2.772186642912868,Saint-Eloi,Saint-Éloi,48.883101499999995,2.772242,StopPoint:node:1454937242,Route:relation:9700082,Line:relation:7003010
C00627,15246,23,48.87764783547221,2.7323297052946995,Alembert,Alembert,48.8776557,2.7326135,StopPoint:node:4332048652,Route:relation:3940843,Line:relation:7003010
C00627,15246,23,48.87764783547221,2.7323297052946995,Alembert,Alembert,48.8776557,2.7326135,StopPoint:node:4332048652,Route:relation:9700082,Line:relation:7003010
C00627,15246,23,48.87764783547221,2.7323297052946995,Alembert,Alembert,48.8776557,2.7326135,StopPoint:node:4332048652,Route:relation:9700083,Line:relation:7003010
C00627,15247,23,48.877718222607534,2.7316339861746917,Alembert,Alembert,48.8777392,2.7316775,StopPoint:node:6554999485,Route:relation:7449900,Line:relation:7003010
C00627,15247,23,48.877718222607534,2.7316339861746917,Alembert,Alembert,48.8777392,2.7316775,StopPoint:node:6554999485,Route:relation:9700080,Line:relation:7003010
C00627,15247,23,48.877718222607534,2.7316339861746917,Alembert,Alembert,48.8777392,2.7316775,StopPoint:node:6554999485,Route:relation:9700081,Line:relation:7003010
C00627,15258,23,48.878130552908424,2.711711751170058,Metz,Metz,48.8781259,2.7117145,StopPoint:node:2991484612,Route:relation:3940843,Line:relation:7003010
C00627,15301,23,48.88550748462188,2.771235111520605,Louis Pasteur,Louis Pasteur,48.8855256,2.7712627,StopPoint:node:4590698182,Route:relation:9700080,Line:relation:7003010
C00627,15301,23,48.88550748462188,2.771235111520605,Louis Pasteur,Louis Pasteur,48.8856399,2.7714224,StopPoint:node:5265220239,Route:relation:9700082,Line:relation:7003010
C00627,15302,23,48.88563367221697,2.771384558773624,Louis Pasteur,Louis Pasteur,48.8856399,2.7714224,StopPoint:node:5265220239,Route:relation:9700082,Line:relation:7003010
C00627,15303,23,48.86729463037447,2.719623600644716,Lycée Van Dongen,Lycée Van Dongen,48.867159799999996,2.7195538999999997,StopPoint:node:2131046593,Route:relation:9700080,Line:relation:7003010
C00627,15303,23,48.86729463037447,2.719623600644716,Lycée Van Dongen,Lycée Van Dongen,48.867159799999996,2.7195538999999997,StopPoint:node:2131046593,Route:relation:9700081,Line:relation:7003010
C00627,15303,23,48.86729463037447,2.719623600644716,Lycée Van Dongen,Lycée Van Dongen,48.867159799999996,2.7195538999999997,StopPoint:node:2131046593,Route:relation:9700082,Line:relation:7003010
C00627,15303,23,48.86729463037447,2.719623600644716,Lycée Van Dongen,Lycée Van Dongen,48.867159799999996,2.7195538999999997,StopPoint:node:2131046593,Route:relation:9700083,Line:relation:7003010
C00627,15318,23,48.873229816077064,2.7520933950613635,Bicheret,Bicheret,48.873384599999994,2.7519785999999997,StopPoint:node:5504567843,Route:relation:9700082,Line:relation:7003010
C00627,15318,23,48.873229816077064,2.7520933950613635,Bicheret,Bicheret,48.873384599999994,2.7519785999999997,StopPoint:node:5504567843,Route:relation:9700083,Line:relation:7003010
C00627,15319,23,48.87306839307838,2.752312295023158,Bicheret,Bicheret,48.872989,2.7523838,StopPoint:node:474671243,Route:relation:9700080,Line:relation:7003010
C00627,15319,23,48.87306839307838,2.752312295023158,Bicheret,Bicheret,48.872989,2.7523838,StopPoint:node:474671243,Route:relation:9700081,Line:relation:7003010
C00627,15320,23,48.86853722015273,2.7529745460260577,Binaches,Binaches,48.868637899999996,2.752906,StopPoint:node:4590685710,Route:relation:9700083,Line:relation:7003010
C00627,15321,23,48.86934538477678,2.7523845265924405,Binaches,Binaches,48.8692606,2.7524656999999997,StopPoint:node:4332647838,Route:relation:9700081,Line:relation:7003010
C00627,15324,23,48.87864470599556,2.756989742754312,Glacière,Glacière,48.8781402,2.7552464999999997,StopPoint:node:6554999496,Route:relation:3940843,Line:relation:7003010
C00627,15324,23,48.87864470599556,2.756989742754312,Glacière,Glacière,48.8781402,2.7552464999999997,StopPoint:node:6554999496,Route:relation:9700082,Line:relation:7003010
C00627,15325,23,48.878680401102216,2.756853229239025,Glacière,Glacière,48.878314599999996,2.7562911999999997,StopPoint:node:6554999489,Route:relation:7449900,Line:relation:7003010
C00627,15325,23,48.878680401102216,2.756853229239025,Glacière,Glacière,48.878314599999996,2.7562911999999997,StopPoint:node:6554999489,Route:relation:9700080,Line:relation:7003010
C00627,15330,23,48.86639588977904,2.7613680607610953,Bois de Loselet,Bois de Loselet,48.8663916,2.7614227,StopPoint:node:4307818626,Route:relation:9700081,Line:relation:7003010
C00627,15331,23,48.866861842244994,2.7605207670652203,Bois de Loselet,Bois de Loselet,48.8668621,2.7604007999999998,StopPoint:node:5586744263,Route:relation:9700083,Line:relation:7003010
C00627,15337,23,48.87790764745801,2.716280548811583,Pouzol,Pouzol,48.8779621,2.7161211,StopPoint:node:4320154321,Route:relation:3940843,Line:relation:7003010
C00627,15338,23,48.87819390228676,2.715638163568065,Pouzol,Pouzol,48.8782065,2.7155571,StopPoint:node:5259356651,Route:relation:7449900,Line:relation:7003010
C00627,15339,23,48.87799699263983,2.743944528474355,Bonne Auberge,Bonne Auberge,48.878014099999994,2.7439413999999998,StopPoint:node:6554999486,Route:relation:7449900,Line:relation:7003010
C00627,15339,23,48.87799699263983,2.743944528474355,Bonne Auberge,Bonne Auberge,48.878014099999994,2.7439413999999998,StopPoint:node:6554999486,Route:relation:9700080,Line:relation:7003010
C00627,15339,23,48.87799699263983,2.743944528474355,Bonne Auberge,Bonne Auberge,48.878014099999994,2.7439413999999998,StopPoint:node:6554999486,Route:relation:9700081,Line:relation:7003010
C00627,15368,23,48.87614823707528,2.750007130570086,Sophora,Sophora,48.8761593,2.7500693999999997,StopPoint:node:474671240,Route:relation:3940843,Line:relation:7003010
C00627,15368,23,48.87614823707528,2.750007130570086,Sophora,Sophora,48.8761593,2.7500693999999997,StopPoint:node:474671240,Route:relation:9700082,Line:relation:7003010
C00627,15369,23,48.87573481494391,2.7501318202596075,Sophora,Sophora,48.8757644,2.7501145,StopPoint:node:5195714956,Route:relation:7449900,Line:relation:7003010
C00627,15369,23,48.87573481494391,2.7501318202596075,Sophora,Sophora,48.8757644,2.7501145,StopPoint:node:5195714956,Route:relation:9700080,Line:relation:7003010
C00627,15374,23,48.875304661813196,2.703506186048347,Saint Joseph,Saint-Joseph,48.875318799999995,2.7034141,StopPoint:node:2131074444,Route:relation:3940843,Line:relation:7003010
C00627,15375,23,48.875394895592706,2.703628377198485,Saint Joseph,Saint-Joseph,48.8753868,2.7036757,StopPoint:node:2131074446,Route:relation:7449900,Line:relation:7003010
C00627,15390,23,48.895468880290004,2.77449200045827,Calvaire,Calvaire,48.895483899999995,2.7745015,StopPoint:node:4319940893,Route:relation:9700080,Line:relation:7003010
C00627,15391,23,48.89542414709293,2.7746149458637044,Calvaire,Calvaire,48.895425599999996,2.7746484,StopPoint:node:4590698185,Route:relation:9700082,Line:relation:7003010
C00627,15403,23,48.89231965225358,2.7735918767604675,Vaillant,Vaillant,48.8924028,2.7736018,StopPoint:node:4590698183,Route:relation:9700080,Line:relation:7003010
C00627,15404,23,48.892364848661934,2.773714424668994,Vaillant,Vaillant,48.89233,2.7737138999999997,StopPoint:node:4590698184,Route:relation:9700082,Line:relation:7003010
C00627,15405,23,48.87856409874962,2.7014696951315122,Verdun,Verdun,48.8785719,2.7015127,StopPoint:node:2991484604,Route:relation:3940843,Line:relation:7003010
C00627,15406,23,48.87908609855089,2.701630321021339,Verdun,Verdun,48.8790446,2.701679,StopPoint:node:2991484603,Route:relation:7449900,Line:relation:7003010
C00627,15407,23,48.87513182977338,2.745649201906583,Mairie,Montévrain Mairie,48.8751671,2.7456674,StopPoint:node:474671239,Route:relation:3940843,Line:relation:7003010
C00627,15407,23,48.87513182977338,2.745649201906583,Mairie,Montévrain Mairie,48.8751671,2.7456674,StopPoint:node:474671239,Route:relation:7449900,Line:relation:7003010
C00627,15407,23,48.87513182977338,2.745649201906583,Mairie,Montévrain Mairie,48.8751671,2.7456674,StopPoint:node:474671239,Route:relation:9700080,Line:relation:7003010
C00627,15407,23,48.87513182977338,2.745649201906583,Mairie,Montévrain Mairie,48.8751671,2.7456674,StopPoint:node:474671239,Route:relation:9700081,Line:relation:7003010
C00627,15407,23,48.87513182977338,2.745649201906583,Mairie,Montévrain Mairie,48.8751671,2.7456674,StopPoint:node:474671239,Route:relation:9700082,Line:relation:7003010
C00627,15407,23,48.87513182977338,2.745649201906583,Mairie,Montévrain Mairie,48.8751671,2.7456674,StopPoint:node:474671239,Route:relation:9700083,Line:relation:7003010
C00627,15427,23,48.88714568033891,2.772005218199235,Château,Château,48.8872176,2.7721023,StopPoint:node:5265220241,Route:relation:9700080,Line:relation:7003010
C00627,15428,23,48.887343913940896,2.77220890460084,Château,Château,48.8873363,2.7722306,StopPoint:node:5265220240,Route:relation:9700082,Line:relation:7003010
C00627,15452,23,48.87746605999572,2.719705188939489,Rue Roger,Rue Roger,48.8774856,2.7197782,StopPoint:node:2992242944,Route:relation:7449900,Line:relation:7003010
C00627,15452,23,48.87746605999572,2.719705188939489,Rue Roger,Rue Roger,48.8774856,2.7197782,StopPoint:node:2992242944,Route:relation:9700080,Line:relation:7003010
C00627,15452,23,48.87746605999572,2.719705188939489,Rue Roger,Rue Roger,48.8774856,2.7197782,StopPoint:node:2992242944,Route:relation:9700081,Line:relation:7003010
C00627,15523,23,48.87795577668828,2.745703583305735,Bonne Auberge,Bonne Auberge,48.8779487,2.7456529,StopPoint:node:6554999498,Route:relation:3940843,Line:relation:7003010
C00627,15523,23,48.87795577668828,2.745703583305735,Bonne Auberge,Bonne Auberge,48.8779487,2.7456529,StopPoint:node:6554999498,Route:relation:9700082,Line:relation:7003010
C00627,15523,23,48.87795577668828,2.745703583305735,Bonne Auberge,Bonne Auberge,48.8779487,2.7456529,StopPoint:node:6554999498,Route:relation:9700083,Line:relation:7003010
C00627,15524,23,48.878144910129414,2.7501066230299323,Fontaine au Roi,Fontaine au Roi,48.878152,2.7501211999999997,StopPoint:node:5586723529,Route:relation:7449900,Line:relation:7003010
C00627,15524,23,48.878144910129414,2.7501066230299323,Fontaine au Roi,Fontaine au Roi,48.878152,2.7501211999999997,StopPoint:node:5586723529,Route:relation:9700080,Line:relation:7003010
C00627,15542,23,48.877453132905934,2.725772564034142,Coteaux RD934,Coteaux RD934,48.877458999999995,2.7257979999999997,StopPoint:node:6554999499,Route:relation:3940843,Line:relation:7003010
C00627,15542,23,48.877453132905934,2.725772564034142,Coteaux RD934,Coteaux RD934,48.877458999999995,2.7257979999999997,StopPoint:node:6554999499,Route:relation:9700082,Line:relation:7003010
C00627,15542,23,48.877453132905934,2.725772564034142,Coteaux RD934,Coteaux RD934,48.877458999999995,2.7257979999999997,StopPoint:node:6554999499,Route:relation:9700083,Line:relation:7003010
C00627,15543,23,48.87764634281839,2.7276803686985303,Coteaux RD934,Coteaux RD934,48.8776448,2.727648,StopPoint:node:4328379451,Route:relation:7449900,Line:relation:7003010
C00627,15543,23,48.87764634281839,2.7276803686985303,Coteaux RD934,Coteaux RD934,48.8776448,2.727648,StopPoint:node:4328379451,Route:relation:9700080,Line:relation:7003010
C00627,15543,23,48.87764634281839,2.7276803686985303,Coteaux RD934,Coteaux RD934,48.8776448,2.727648,StopPoint:node:4328379451,Route:relation:9700081,Line:relation:7003010
C00627,15561,23,48.873530621264685,2.709869438462858,Saint-Laurent (Rue Brébion),Saint-Laurent - Brébion,48.8735219,2.7098388,StopPoint:node:796509688,Route:relation:9700082,Line:relation:7003010
C00627,15586,23,48.87082125619107,2.7957974388715856,Santa Fé,Santa Fe,48.870810899999995,2.7957788,StopPoint:node:6554999490,Route:relation:3940843,Line:relation:7003010
C00627,15587,23,48.87065603945577,2.79384862800287,Séquoia Lodge,Sequoia Lodge,48.8706487,2.7938682,StopPoint:node:2274924818,Route:relation:7449900,Line:relation:7003010
C00627,15588,23,48.87901243392396,2.7082299929194806,La Poste,La Poste,48.8790431,2.708233,StopPoint:node:2991484611,Route:relation:7449900,Line:relation:7003010
C00627,15627,23,48.87804737993599,2.7507751831555542,Fontaine au Roi,Fontaine au Roi,48.878062,2.7506996,StopPoint:node:5915262131,Route:relation:3940843,Line:relation:7003010
C00627,15627,23,48.87804737993599,2.7507751831555542,Fontaine au Roi,Fontaine au Roi,48.878062,2.7506996,StopPoint:node:5915262131,Route:relation:9700082,Line:relation:7003010
C00627,15628,23,48.87157289046499,2.751037919474566,Puits du Gué,Puits du Gué,48.8715256,2.7510369999999997,StopPoint:node:6555120139,Route:relation:9700080,Line:relation:7003010
C00627,15628,23,48.87157289046499,2.751037919474566,Puits du Gué,Puits du Gué,48.8715256,2.7510369999999997,StopPoint:node:6555120139,Route:relation:9700081,Line:relation:7003010
C00627,15628,23,48.87157289046499,2.751037919474566,Puits du Gué,Puits du Gué,48.8715256,2.7510369999999997,StopPoint:node:6555120139,Route:relation:9700082,Line:relation:7003010
C00627,15628,23,48.87157289046499,2.751037919474566,Puits du Gué,Puits du Gué,48.8715256,2.7510369999999997,StopPoint:node:6555120139,Route:relation:9700083,Line:relation:7003010
C00627,15631,23,48.8672522725261,2.757901685060629,Parc du Mont Evrain,Parc du Mont Evrain,48.8672645,2.7578158,StopPoint:node:4324426001,Route:relation:9700083,Line:relation:7003010
C00627,15632,23,48.86743952535744,2.7571101730981913,Parc du Mont Evrain,Parc du Mont Evrain,48.8674414,2.7572232,StopPoint:node:4324426000,Route:relation:9700081,Line:relation:7003010
C00627,15635,23,48.879692765010056,2.7685200271243167,Ecoles,Écoles,48.8797163,2.7685679999999997,StopPoint:node:4405403340,Route:relation:7449900,Line:relation:7003010
C00627,15635,23,48.879692765010056,2.7685200271243167,Ecoles,Écoles,48.8797163,2.7685679999999997,StopPoint:node:4405403340,Route:relation:9700080,Line:relation:7003010
C00627,15636,23,48.87991919482315,2.769350756588586,Ecoles,Écoles,48.8799133,2.7693136999999997,StopPoint:node:5586723528,Route:relation:3940843,Line:relation:7003010
C00627,15636,23,48.87991919482315,2.769350756588586,Ecoles,Écoles,48.8799133,2.7693136999999997,StopPoint:node:5586723528,Route:relation:9700082,Line:relation:7003010
C00627,15657,23,48.87905252303597,2.7819667701123847,Parking Nord,Parking Nord,48.879055,2.7819347999999997,StopPoint:node:5805223882,Route:relation:3940843,Line:relation:7003010
C00627,15673,23,48.87617781630076,2.7074959984197897,Galliéni,Galliéni,48.8761854,2.7075329,StopPoint:node:2991484608,Route:relation:3940843,Line:relation:7003010
C00627,15673,23,48.87617781630076,2.7074959984197897,Galliéni,Galliéni,48.8761854,2.7075329,StopPoint:node:2991484608,Route:relation:9700082,Line:relation:7003010
C00627,15674,23,48.87670803593454,2.707343044366622,Galliéni,Galliéni,48.8761995,2.7073452,StopPoint:node:2991484609,Route:relation:7449900,Line:relation:7003010
C00627,15677,23,48.876559871846204,2.7206099204274823,La Gendarmerie,La Gendarmerie,48.876574299999994,2.7205387,StopPoint:node:2131074456,Route:relation:3940843,Line:relation:7003010
C00627,15677,23,48.876559871846204,2.7206099204274823,La Gendarmerie,La Gendarmerie,48.876574299999994,2.7205387,StopPoint:node:2131074456,Route:relation:9700082,Line:relation:7003010
C00627,15677,23,48.876559871846204,2.7206099204274823,La Gendarmerie,La Gendarmerie,48.876574299999994,2.7205387,StopPoint:node:2131074456,Route:relation:9700083,Line:relation:7003010
C00627,15687,23,48.87619812970537,2.7011560383293856,Lagny Thorigny / Foch,Foch,48.876372599999996,2.7010376,StopPoint:node:2991484607,Route:relation:3940843,Line:relation:7003010
C00627,18067,23,48.879275873213466,2.7886659944410384,CAMSP,C.A.M.S.P.,48.879278799999994,2.7886595,StopPoint:node:5341437379,Route:relation:3940843,Line:relation:7003010
C00627,18779,23,48.87939248498137,2.7884972669926045,C.A.M.S.P.,C.A.M.S.P.,48.879385299999996,2.7884884,StopPoint:node:5341437380,Route:relation:7449900,Line:relation:7003010
C00627,412406,23,48.881945814773225,2.70522736628953,Gare de Lagny Thorigny,Gare de Lagny - Thorigny,48.8819003,2.7051164,StopPoint:node:4848176377,Route:relation:7449900,Line:relation:7003010
C00627,41470,23,48.87886119899049,2.766355799742771,Chessy / Mairie,Mairie de Chessy,48.8782808,2.7652072,StopPoint:node:2966604555,Route:relation:3940843,Line:relation:7003010
C00627,41470,23,48.87886119899049,2.766355799742771,Chessy / Mairie,Mairie de Chessy,48.8782808,2.7652072,StopPoint:node:2966604555,Route:relation:9700082,Line:relation:7003010
C00627,41470,23,48.87886119899049,2.766355799742771,Chessy / Mairie,Mairie de Chessy,48.8788592,2.76634,StopPoint:node:2966604556,Route:relation:7449900,Line:relation:7003010
C00627,41470,23,48.87886119899049,2.766355799742771,Chessy / Mairie,Mairie de Chessy,48.8788592,2.76634,StopPoint:node:2966604556,Route:relation:9700080,Line:relation:7003010
C00627,41475,23,48.87791835942319,2.740836247986533,Cabane Noire / Montévrain,Cabane Noire,48.8779464,2.7408227999999997,StopPoint:node:4330840079,Route:relation:7449900,Line:relation:7003010
C00627,41475,23,48.87791835942319,2.740836247986533,Cabane Noire / Montévrain,Cabane Noire,48.8779464,2.7408227999999997,StopPoint:node:4330840079,Route:relation:9700080,Line:relation:7003010
C00627,41475,23,48.87791835942319,2.740836247986533,Cabane Noire / Montévrain,Cabane Noire,48.8779464,2.7408227999999997,StopPoint:node:4330840079,Route:relation:9700081,Line:relation:7003010
C00627,41475,23,48.87791835942319,2.740836247986533,Cabane Noire / Montévrain,Cabane Noire,48.8779015,2.7427550999999997,StopPoint:node:5478783751,Route:relation:3940843,Line:relation:7003010
C00627,41475,23,48.87791835942319,2.740836247986533,Cabane Noire / Montévrain,Cabane Noire,48.8779015,2.7427550999999997,StopPoint:node:5478783751,Route:relation:9700082,Line:relation:7003010
C00627,41475,23,48.87791835942319,2.740836247986533,Cabane Noire / Montévrain,Cabane Noire,48.8779015,2.7427550999999997,StopPoint:node:5478783751,Route:relation:9700083,Line:relation:7003010
C00627,417796,23,48.88190927207319,2.704995768403806,Gare de Lagny Thorigny,Gare de Lagny - Thorigny,48.8819259,2.7062765,StopPoint:node:4848176376,Route:relation:3940843,Line:relation:7003010
C00627,471093,23,48.87711636622521,2.7015325305763582,Foch / Paix Notre Dame,Foch - Paix Notre-Dame,48.8771437,2.7015058,StopPoint:node:2991484606,Route:relation:7449900,Line:relation:7003010
C00627,472596,23,48.87830141962321,2.7652266398021474,Chessy / Mairie,Mairie de Chessy,48.8782808,2.7652072,StopPoint:node:2966604555,Route:relation:3940843,Line:relation:7003010
C00627,472596,23,48.87830141962321,2.7652266398021474,Chessy / Mairie,Mairie de Chessy,48.8782808,2.7652072,StopPoint:node:2966604555,Route:relation:9700082,Line:relation:7003010
C00627,482562,23,48.88127058189277,2.775357968090766,Artisans,Artisans,48.8812735,2.7753851999999997,StopPoint:node:2992336949,Route:relation:3940843,Line:relation:7003010
C00628,15289,25,48.86232335796769,2.6742336902571338,Parc de L'Esplanade,Parc de l'Esplanade,48.862347299999996,2.6742293,StopPoint:node:3063817380,Route:relation:3936704,Line:relation:6138428
C00628,15289,25,48.86232335796769,2.6742336902571338,Parc de L'Esplanade,Parc de l'Esplanade,48.862347299999996,2.6742293,StopPoint:node:3063817380,Route:relation:7710625,Line:relation:6138428
C00628,15290,25,48.86230552019068,2.674288323643894,Parc de L'Esplanade,Parc de l'Esplanade,48.8622558,2.6743300999999997,StopPoint:node:2995657985,Route:relation:6138427,Line:relation:6138428
C00628,15290,25,48.86230552019068,2.674288323643894,Parc de L'Esplanade,Parc de l'Esplanade,48.8622558,2.6743300999999997,StopPoint:node:2995657985,Route:relation:7710776,Line:relation:6138428
C00628,15322,25,48.85324207118499,2.6716466147408333,Plaine,Plaine,48.853988,2.6719607,StopPoint:node:5212682975,Route:relation:3936704,Line:relation:6138428
C00628,15323,25,48.852953654109115,2.671416755864823,Plaine,Plaine,48.8529725,2.6715103,StopPoint:node:4326512101,Route:relation:6138427,Line:relation:6138428
C00628,15352,25,48.87701659316871,2.701192244996958,Foch / Paix Notre Dame,Paix Notre-Dame,48.8769959,2.7012077,StopPoint:node:2991484605,Route:relation:3936704,Line:relation:6138428
C00628,15352,25,48.87701659316871,2.701192244996958,Foch / Paix Notre Dame,Paix Notre-Dame,48.8769959,2.7012077,StopPoint:node:2991484605,Route:relation:7710625,Line:relation:6138428
C00628,15360,25,48.85560850264616,2.6720814496580494,Sablons,Sablons,48.8556452,2.6720183,StopPoint:node:5212682977,Route:relation:3936704,Line:relation:6138428
C00628,15361,25,48.85640818188474,2.6718174673950768,Sablons,Sablons,48.856213399999994,2.6719325,StopPoint:node:5212682976,Route:relation:6138427,Line:relation:6138428
C00628,15372,25,48.852791545357015,2.6648490927266946,Saint Germain des Noyers,Saint-Germain-des-Noyers,48.8527734,2.6648168,StopPoint:node:2995657988,Route:relation:3936704,Line:relation:6138428
C00628,15372,25,48.852791545357015,2.6648490927266946,Saint Germain des Noyers,Saint-Germain-des-Noyers,48.8527734,2.6648168,StopPoint:node:2995657988,Route:relation:7710625,Line:relation:6138428
C00628,15373,25,48.85258470268436,2.6648504230955905,Saint Germain des Noyers,Saint-Germain-des-Noyers,48.852557999999995,2.6648331,StopPoint:node:2995657989,Route:relation:6138427,Line:relation:6138428
C00628,15373,25,48.85258470268436,2.6648504230955905,Saint Germain des Noyers,Saint-Germain-des-Noyers,48.852557999999995,2.6648331,StopPoint:node:2995657989,Route:relation:7710776,Line:relation:6138428
C00628,15376,25,48.85894177206777,2.6709019561083815,Collège Léonard de Vinci (RD418),Collège Léonard de Vinci,48.8589863,2.6709239,StopPoint:node:2995657987,Route:relation:3936704,Line:relation:6138428
C00628,15376,25,48.85894177206777,2.6709019561083815,Collège Léonard de Vinci (RD418),Collège Léonard de Vinci,48.8589863,2.6709239,StopPoint:node:2995657987,Route:relation:7710625,Line:relation:6138428
C00628,15377,25,48.858861096389475,2.67099787263456,Collège Léonard de Vinci (RD418),Collège Léonard de Vinci,48.8588266,2.6709793,StopPoint:node:2995657986,Route:relation:6138427,Line:relation:6138428
C00628,15377,25,48.858861096389475,2.67099787263456,Collège Léonard de Vinci (RD418),Collège Léonard de Vinci,48.8588266,2.6709793,StopPoint:node:2995657986,Route:relation:7710776,Line:relation:6138428
C00628,15406,25,48.87908609855089,2.701630321021339,Verdun,Verdun,48.8790446,2.701679,StopPoint:node:2991484603,Route:relation:6138427,Line:relation:6138428
C00628,15406,25,48.87908609855089,2.701630321021339,Verdun,Verdun,48.8790446,2.701679,StopPoint:node:2991484603,Route:relation:7710776,Line:relation:6138428
C00628,15422,25,48.86871852785157,2.688112106993163,Mairie,Saint-Thibault Mairie,48.8687111,2.6881588,StopPoint:node:3063817389,Route:relation:3936704,Line:relation:6138428
C00628,15423,25,48.86887275821507,2.6886292060561696,Mairie,Saint-Thibault Mairie,48.8688674,2.6886161,StopPoint:node:3063817390,Route:relation:6138427,Line:relation:6138428
C00628,15511,25,48.87499283345395,2.6939506914463043,Rothschild,Rothschild,48.875009999999996,2.6939965,StopPoint:node:3065584325,Route:relation:3936704,Line:relation:6138428
C00628,15511,25,48.87499283345395,2.6939506914463043,Rothschild,Rothschild,48.875009999999996,2.6939965,StopPoint:node:3065584325,Route:relation:7710625,Line:relation:6138428
C00628,15512,25,48.87483953419667,2.6937879874780597,Rothschild,Rothschild,48.8748285,2.6937523999999997,StopPoint:node:3065584326,Route:relation:6138427,Line:relation:6138428
C00628,15512,25,48.87483953419667,2.6937879874780597,Rothschild,Rothschild,48.8748285,2.6937523999999997,StopPoint:node:3065584326,Route:relation:7710776,Line:relation:6138428
C00628,15513,25,48.873166709624925,2.6902531658455215,Fontaine,Fontaine,48.873127,2.6903037999999997,StopPoint:node:3063817391,Route:relation:3936704,Line:relation:6138428
C00628,15514,25,48.87326580904501,2.6903207431235585,Fontaine,Fontaine,48.873247,2.6903633,StopPoint:node:3065584327,Route:relation:6138427,Line:relation:6138428
C00628,15529,25,48.839935052981176,2.6599042774663912,Les Marchais,Les Marchais,48.8399418,2.6598924,StopPoint:node:2995657990,Route:relation:3936704,Line:relation:6138428
C00628,15529,25,48.839935052981176,2.6599042774663912,Les Marchais,Les Marchais,48.8399418,2.6598924,StopPoint:node:2995657990,Route:relation:7710625,Line:relation:6138428
C00628,15530,25,48.83971925344964,2.6599193101245295,Les Marchais,Les Marchais,48.8397271,2.6598281,StopPoint:node:2995657991,Route:relation:6138427,Line:relation:6138428
C00628,15530,25,48.83971925344964,2.6599193101245295,Les Marchais,Les Marchais,48.8397271,2.6598281,StopPoint:node:2995657991,Route:relation:7710776,Line:relation:6138428
C00628,15611,25,48.85790722632175,2.670785826792782,Collège Léonard de Vinci,Collège Léonard de Vinci (scolaire),48.8579945,2.6707042,StopPoint:node:1569560345,Route:relation:3936704,Line:relation:6138428
C00628,15612,25,48.85807820807152,2.6708256345112997,Collège Léonard de Vinci,Collège Léonard de Vinci (scolaire),48.8580438,2.6708659,StopPoint:node:1569560347,Route:relation:6138427,Line:relation:6138428
C00628,15653,25,48.85253218886893,2.6685984364090043,Erable,Érable,48.8525485,2.6686213999999997,StopPoint:node:1569560214,Route:relation:3936704,Line:relation:6138428
C00628,15654,25,48.852488015337094,2.6688849032050004,Erable,Érable,48.85245,2.6685792999999998,StopPoint:node:5212510585,Route:relation:6138427,Line:relation:6138428
C00628,15697,25,48.838911874765415,2.6543522159153237,Gare de Torcy,Torcy RER,48.8393066,2.6542586,StopPoint:node:3900948965,Route:relation:3936704,Line:relation:6138428
C00628,15697,25,48.838911874765415,2.6543522159153237,Gare de Torcy,Torcy RER,48.8393066,2.6542586,StopPoint:node:3900948965,Route:relation:7710625,Line:relation:6138428
C00628,15700,25,48.87623556927973,2.698156323648412,Saint-Jean,Saint-Jean,48.876231499999996,2.6981740999999997,StopPoint:node:3014276585,Route:relation:3936704,Line:relation:6138428
C00628,15700,25,48.87623556927973,2.698156323648412,Saint-Jean,Saint-Jean,48.876231499999996,2.6981740999999997,StopPoint:node:3014276585,Route:relation:7710625,Line:relation:6138428
C00628,15701,25,48.875964782154995,2.697762506350816,Saint-Jean Terminus,Saint-Jean,48.875983899999994,2.6977632,StopPoint:node:2991570041,Route:relation:6138427,Line:relation:6138428
C00628,15701,25,48.875964782154995,2.697762506350816,Saint-Jean Terminus,Saint-Jean,48.875983899999994,2.6977632,StopPoint:node:2991570041,Route:relation:7710776,Line:relation:6138428
C00628,15713,25,48.87018154265416,2.683590984785711,Joncs,Joncs,48.870146,2.6839307999999997,StopPoint:node:5212713856,Route:relation:3936704,Line:relation:6138428
C00628,15714,25,48.870100857625545,2.6836869023547614,Joncs,Joncs,48.870101899999995,2.6837229,StopPoint:node:5212713855,Route:relation:6138427,Line:relation:6138428
C00628,15717,25,48.87117184649038,2.69087850296903,Kennedy,Kennedy,48.8711564,2.6908189,StopPoint:node:7710096291,Route:relation:3936704,Line:relation:6138428
C00628,15718,25,48.870575838697214,2.689927756868641,Kennedy,Kennedy,48.870602399999996,2.6899686,StopPoint:node:5506487878,Route:relation:6138427,Line:relation:6138428
C00628,16926,25,48.84354313985794,2.666911523481628,Gué Langlois,Gué Langlois,48.843270399999994,2.6671461,StopPoint:node:2094930644,Route:relation:3936704,Line:relation:6138428
C00628,16926,25,48.84354313985794,2.666911523481628,Gué Langlois,Gué Langlois,48.843270399999994,2.6671461,StopPoint:node:2094930644,Route:relation:7710625,Line:relation:6138428
C00628,16927,25,48.843948100857396,2.6670043149995624,Gué Langlois,Gué Langlois,48.8436563,2.6671659,StopPoint:node:2094930619,Route:relation:6138427,Line:relation:6138428
C00628,16927,25,48.843948100857396,2.6670043149995624,Gué Langlois,Gué Langlois,48.8436563,2.6671659,StopPoint:node:2094930619,Route:relation:7710776,Line:relation:6138428
C00628,35865,25,48.84088314762169,2.6676506405739646,Cèdre,Cèdre,48.840878499999995,2.6677481,StopPoint:node:2995657992,Route:relation:6138427,Line:relation:6138428
C00628,35865,25,48.84088314762169,2.6676506405739646,Cèdre,Cèdre,48.840878499999995,2.6677481,StopPoint:node:2995657992,Route:relation:7710776,Line:relation:6138428
C00628,35866,25,48.840973004473085,2.6676228178220955,Cèdre,Cèdre,48.840995,2.6677401,StopPoint:node:2995657993,Route:relation:3936704,Line:relation:6138428
C00628,35866,25,48.840973004473085,2.6676228178220955,Cèdre,Cèdre,48.840995,2.6677401,StopPoint:node:2995657993,Route:relation:7710625,Line:relation:6138428
C00628,412406,25,48.881945814773225,2.70522736628953,Gare de Lagny Thorigny,Gare de Lagny - Thorigny,48.8819003,2.7051164,StopPoint:node:4848176377,Route:relation:6138427,Line:relation:6138428
C00628,412406,25,48.881945814773225,2.70522736628953,Gare de Lagny Thorigny,Gare de Lagny - Thorigny,48.8819003,2.7051164,StopPoint:node:4848176377,Route:relation:7710776,Line:relation:6138428
C00628,41471,25,48.870573950025786,2.6823480327922895,Avenue du Général Leclerc,Avenue du Général Leclerc,48.8706234,2.6824109,StopPoint:node:3075864492,Route:relation:7710625,Line:relation:6138428
C00628,41657,25,48.87333333226379,2.688616174492159,Branly,Branly,48.8732342,2.6882945,StopPoint:node:5212586440,Route:relation:7710776,Line:relation:6138428
C00628,41658,25,48.85486571632351,2.6668936583243927,Place Claude Monet,Place Claude Monet,48.8548872,2.6668507999999997,StopPoint:node:5212597687,Route:relation:7710625,Line:relation:6138428
C00628,41659,25,48.85465872224966,2.6668404677316144,Place Claude Monet,Place Claude Monet,48.8548705,2.6671035,StopPoint:node:4317604494,Route:relation:7710776,Line:relation:6138428
C00628,417795,25,48.88194524383408,2.7049955646352575,Gare de Lagny Thorigny,Gare de Lagny - Thorigny,48.8819577,2.7059968,StopPoint:node:4848176371,Route:relation:3936704,Line:relation:6138428
C00628,417795,25,48.88194524383408,2.7049955646352575,Gare de Lagny Thorigny,Gare de Lagny - Thorigny,48.8819577,2.7059968,StopPoint:node:4848176371,Route:relation:7710625,Line:relation:6138428
C00628,471093,25,48.87711636622521,2.7015325305763582,Foch / Paix Notre Dame,Foch - Paix Notre-Dame,48.8771437,2.7015058,StopPoint:node:2991484606,Route:relation:6138427,Line:relation:6138428
C00628,471093,25,48.87711636622521,2.7015325305763582,Foch / Paix Notre Dame,Foch - Paix Notre-Dame,48.8771437,2.7015058,StopPoint:node:2991484606,Route:relation:7710776,Line:relation:6138428
C00628,471351,25,48.87076392424973,2.6827694870517464,Avenue du Général Leclerc,Avenue du Général Leclerc,48.8707059,2.6826925,StopPoint:node:3075864491,Route:relation:7710776,Line:relation:6138428
C00628,482435,25,48.83891266179678,2.6546246978813746,Gare de Torcy,Torcy RER,48.8389093,2.6546221,StopPoint:node:3900938552,Route:relation:6138427,Line:relation:6138428
C00628,482435,25,48.83891266179678,2.6546246978813746,Gare de Torcy,Torcy RER,48.8389093,2.6546221,StopPoint:node:3900938552,Route:relation:7710776,Line:relation:6138428
C00629,15255,26,48.86429756837928,2.718631039941011,Mermoz,Mermoz,48.8643755,2.7185441999999997,StopPoint:node:2992242959,Route:relation:3937529,Line:relation:6144402
C00629,15256,26,48.86441435034222,2.7185758852695137,Mermoz,Mermoz,48.8644162,2.7186757999999998,StopPoint:node:2992242958,Route:relation:6144401,Line:relation:6144402
C00629,15264,26,48.87084527985704,2.700382420367319,Alsace Lorraine,Alsace-Lorraine,48.870859599999996,2.7003545,StopPoint:node:3533259615,Route:relation:3937529,Line:relation:6144402
C00629,15265,26,48.87116003581405,2.7003806098850025,Alsace Lorraine,Alsace-Lorraine,48.8711329,2.7004126999999998,StopPoint:node:2131046679,Route:relation:6144401,Line:relation:6144402
C00629,15276,26,48.86481536760305,2.709509042599383,Orme Bossu,Orme Bossu,48.864840199999996,2.7093453999999997,StopPoint:node:2992242963,Route:relation:3937529,Line:relation:6144402
C00629,15277,26,48.86494117147721,2.709467447719105,Orme Bossu,Orme Bossu,48.8649279,2.7094662,StopPoint:node:2992242962,Route:relation:6144401,Line:relation:6144402
C00629,15278,26,48.85300010461299,2.7178062233684086,Paul Claudel,Paul Claudel,48.8530004,2.7178446999999997,StopPoint:node:2992242954,Route:relation:3937529,Line:relation:6144402
C00629,15279,26,48.852928512607185,2.7179565188612385,Paul Claudel,Paul Claudel,48.8529329,2.7179229,StopPoint:node:2992242955,Route:relation:6144401,Line:relation:6144402
C00629,15281,26,48.83882402709816,2.7055529848096547,Palissy,Palissy,48.838986,2.7055768,StopPoint:node:4328366646,Route:relation:6144401,Line:relation:6144402
C00629,15304,26,48.869735549658635,2.70255635303712,Beau Site,Beau Site,48.8697186,2.7025856999999998,StopPoint:node:2991570039,Route:relation:3937529,Line:relation:6144402
C00629,15305,26,48.86979021894385,2.7028423212958472,Beau Site,Beau Site,48.8697866,2.7029022,StopPoint:node:2991570038,Route:relation:6144401,Line:relation:6144402
C00629,15307,26,48.854186927154004,2.721520324124249,Charles Baudelaire,Charles Baudelaire,48.8544912,2.7215906,StopPoint:node:4321023120,Route:relation:6144401,Line:relation:6144402
C00629,15311,26,48.842499790602155,2.704523949256699,Place du Clos,Place du Clos,48.8425373,2.7047507,StopPoint:node:1494067866,Route:relation:3937529,Line:relation:6144402
C00629,15312,26,48.84193630453475,2.7057806542684686,Place du Clos,Place du Clos,48.8419412,2.7057636,StopPoint:node:1603469487,Route:relation:6144401,Line:relation:6144402
C00629,15395,26,48.86530825214509,2.7162810115076312,Thuyas,Thuyas,48.865303499999996,2.7163005,StopPoint:node:2992242961,Route:relation:3937529,Line:relation:6144402
C00629,15396,26,48.86534461211102,2.71644438823686,Thuyas,Thuyas,48.8653534,2.7164113999999997,StopPoint:node:2992242960,Route:relation:6144401,Line:relation:6144402
C00629,15406,26,48.87908609855089,2.701630321021339,Verdun,Verdun,48.8790446,2.701679,StopPoint:node:2991484603,Route:relation:6144401,Line:relation:6144402
C00629,15534,26,48.868601350998325,2.705766370272825,Tous Vents,Touvents,48.8685896,2.7059246,StopPoint:node:2991570037,Route:relation:3937529,Line:relation:6144402
C00629,15537,26,48.8687541993126,2.705751874798483,Tous Vents,Touvents,48.8687653,2.705664,StopPoint:node:2991570036,Route:relation:6144401,Line:relation:6144402
C00629,15664,26,48.86238933610249,2.721762719694022,Fort du Bois,Fort du Bois,48.862394099999996,2.7218305999999997,StopPoint:node:2992242957,Route:relation:3937529,Line:relation:6144402
C00629,15665,26,48.862416695575256,2.7219261390956606,Fort du Bois,Fort du Bois,48.8624163,2.7219748999999998,StopPoint:node:2992242956,Route:relation:6144401,Line:relation:6144402
C00629,15669,26,48.85621495853461,2.719615076580051,Gérard de Nerval,Gérard de Nerval,48.856205499999994,2.7197834,StopPoint:node:4325443646,Route:relation:6144401,Line:relation:6144402
C00629,15672,26,48.86684894380102,2.7062806384626055,Georges Seurat,Georges Seurat,48.866814999999995,2.7063403999999998,StopPoint:node:4839942373,Route:relation:6144401,Line:relation:6144402
C00629,15682,26,48.854573210101314,2.706295322335833,Eglise,Guermantes Église,48.8546024,2.7060819,StopPoint:node:4325422332,Route:relation:3937529,Line:relation:6144402
C00629,15683,26,48.854616031894025,2.705422861490914,Eglise,Église,48.8546157,2.7053913,StopPoint:node:5366111459,Route:relation:6144401,Line:relation:6144402
C00629,15687,26,48.87619812970537,2.7011560383293856,Lagny Thorigny / Foch,Foch,48.876372599999996,2.7010376,StopPoint:node:2991484607,Route:relation:3937529,Line:relation:6144402
C00629,15688,26,48.87326409471837,2.700245806913977,Henri Dunant,Henri Dunant,48.8728482,2.7002158,StopPoint:node:2991570040,Route:relation:3937529,Line:relation:6144402
C00629,15689,26,48.87294051702653,2.700315835191809,Henri Dunant,Henri Dunant,48.8728853,2.7003568,StopPoint:node:4839942370,Route:relation:6144401,Line:relation:6144402
C00629,15741,26,48.85105120275587,2.704012126131175,Le Nôtre,Le Nôtre,48.8516925,2.7039386,StopPoint:node:2992242951,Route:relation:3937529,Line:relation:6144402
C00629,15742,26,48.85196850783321,2.7040069157068913,Le Nôtre,Le Nôtre,48.8520475,2.7039968,StopPoint:node:2992242950,Route:relation:6144401,Line:relation:6144402
C00629,15748,26,48.852562945719484,2.7154918502619303,Les 2 Châteaux,Les Deux Châteaux,48.852574,2.7155015,StopPoint:node:2992242953,Route:relation:3937529,Line:relation:6144402
C00629,15749,26,48.85244502908399,2.7150700305530244,Les 2 Châteaux,Les Deux Châteaux,48.8524604,2.7150879,StopPoint:node:2992242952,Route:relation:6144401,Line:relation:6144402
C00629,412406,26,48.881945814773225,2.70522736628953,Gare de Lagny Thorigny,Gare de Lagny - Thorigny,48.8819003,2.7051164,StopPoint:node:4848176377,Route:relation:6144401,Line:relation:6144402
C00629,417795,26,48.88194524383408,2.7049955646352575,Gare de Lagny Thorigny,Gare de Lagny - Thorigny,48.8818747,2.7054663999999997,StopPoint:node:4848176374,Route:relation:3937529,Line:relation:6144402
C00629,471093,26,48.87711636622521,2.7015325305763582,Foch / Paix Notre Dame,Foch - Paix Notre-Dame,48.8771437,2.7015058,StopPoint:node:2991484606,Route:relation:6144401,Line:relation:6144402
C00630,15253,29,48.844854870884134,2.653781390238478,Rives de Maubuée,Rives de Maubuée,48.844828299999996,2.6537661999999997,StopPoint:node:2035533718,Route:relation:3937116,Line:relation:6145087
C00630,15254,29,48.84458605963361,2.654123822054623,Rives de Maubuée,Rives de Maubuée,48.8445876,2.6541517,StopPoint:node:2035533714,Route:relation:6145086,Line:relation:6145087
C00630,15269,29,48.87565417629089,2.6854119559599883,Ampère,Ampère,48.8756193,2.6854012999999997,StopPoint:node:2995657983,Route:relation:3937116,Line:relation:6145087
C00630,15270,29,48.875744213593826,2.685452314050104,Ampère,Ampère,48.8757221,2.6854720999999997,StopPoint:node:3066285080,Route:relation:6145086,Line:relation:6145087
C00630,15289,29,48.86232335796769,2.6742336902571338,Parc de L'Esplanade,Parc de l'Esplanade,48.862347299999996,2.6742293,StopPoint:node:3063817380,Route:relation:3937116,Line:relation:6145087
C00630,15290,29,48.86230552019068,2.674288323643894,Parc de L'Esplanade,Parc de l'Esplanade,48.8622558,2.6743300999999997,StopPoint:node:2995657985,Route:relation:6145086,Line:relation:6145087
C00630,15342,29,48.84667626430614,2.6523112662718935,Jacques Prévert,Jacques Prévert,48.8467128,2.6523203,StopPoint:node:6371926490,Route:relation:3937116,Line:relation:6145087
C00630,15343,29,48.84655123027607,2.6526118803182883,Jacques Prévert,Jacques Prévert,48.8465815,2.6525936,StopPoint:node:6371925384,Route:relation:6145086,Line:relation:6145087
C00630,15372,29,48.852791545357015,2.6648490927266946,Saint Germain des Noyers,Saint-Germain-des-Noyers,48.8527734,2.6648168,StopPoint:node:2995657988,Route:relation:3937116,Line:relation:6145087
C00630,15373,29,48.85258470268436,2.6648504230955905,Saint Germain des Noyers,Saint-Germain-des-Noyers,48.852557999999995,2.6648331,StopPoint:node:2995657989,Route:relation:6145086,Line:relation:6145087
C00630,15376,29,48.85894177206777,2.6709019561083815,Collège Léonard de Vinci (RD418),Collège Léonard de Vinci,48.8589863,2.6709239,StopPoint:node:2995657987,Route:relation:3937116,Line:relation:6145087
C00630,15377,29,48.858861096389475,2.67099787263456,Collège Léonard de Vinci (RD418),Collège Léonard de Vinci,48.8588266,2.6709793,StopPoint:node:2995657986,Route:relation:6145086,Line:relation:6145087
C00630,15405,29,48.87856409874962,2.7014696951315122,Verdun,Verdun,48.8785719,2.7015127,StopPoint:node:2991484604,Route:relation:3937116,Line:relation:6145087
C00630,15406,29,48.87908609855089,2.701630321021339,Verdun,Verdun,48.8790446,2.701679,StopPoint:node:2991484603,Route:relation:6145086,Line:relation:6145087
C00630,15417,29,48.84864065389217,2.6567541572385984,Rue des Epinettes,Rue des Épinettes,48.848599,2.6567276,StopPoint:node:482735214,Route:relation:3937116,Line:relation:6145087
C00630,15418,29,48.848920731935145,2.6572020025996377,Rue des Epinettes,Rue des Épinettes,48.848921,2.6572239,StopPoint:node:482735215,Route:relation:6145086,Line:relation:6145087
C00630,15531,29,48.83934341557501,2.6574284845657803,Cités Unies,Cités Unies,48.8393392,2.6574287,StopPoint:node:2020107669,Route:relation:3937116,Line:relation:6145087
C00630,15532,29,48.83911963684023,2.6577978144314147,Cités Unies,Cités Unies,48.8391279,2.6578440999999997,StopPoint:node:2020107685,Route:relation:6145086,Line:relation:6145087
C00630,15697,29,48.838911874765415,2.6543522159153237,Gare de Torcy,Torcy RER,48.8393066,2.6542586,StopPoint:node:3900948965,Route:relation:3937116,Line:relation:6145087
C00630,15703,29,48.86790655777818,2.676966056292385,Intermarché,Intermarché,48.867906,2.6769578999999997,StopPoint:node:3066285078,Route:relation:3937116,Line:relation:6145087
C00630,15704,29,48.867880608178616,2.6773479109386806,Intermarché,Intermarché,48.8678745,2.6773683999999998,StopPoint:node:3066285077,Route:relation:6145086,Line:relation:6145087
C00630,15709,29,48.874071625115405,2.685503315424321,Jacquard,Jacquard,48.8740354,2.6852514999999997,StopPoint:node:3066285079,Route:relation:3937116,Line:relation:6145087
C00630,15710,29,48.874081727725056,2.6859258940361634,Jacquard,Jacquard,48.8740581,2.6857566999999998,StopPoint:node:2995657984,Route:relation:6145086,Line:relation:6145087
C00630,15731,29,48.87819466963855,2.6905641282430626,La Pointe,La Pointe,48.878169199999995,2.6904732,StopPoint:node:2995657982,Route:relation:6145086,Line:relation:6145087
C00630,25852,29,48.84238896219667,2.656304820100105,Salvador Allende,Salvador Allende,48.8423503,2.6563764,StopPoint:node:2035528014,Route:relation:6145086,Line:relation:6145087
C00630,25853,29,48.84289902898219,2.6554158054561228,Salvador Allende,Salvador Allende,48.8429465,2.6553203,StopPoint:node:2035527857,Route:relation:3937116,Line:relation:6145087
C00630,412406,29,48.881945814773225,2.70522736628953,Gare de Lagny Thorigny,Gare de Lagny - Thorigny,48.8819003,2.7051164,StopPoint:node:4848176377,Route:relation:6145086,Line:relation:6145087
C00630,41658,29,48.85486571632351,2.6668936583243927,Place Claude Monet,Place Claude Monet,48.8548872,2.6668507999999997,StopPoint:node:5212597687,Route:relation:3937116,Line:relation:6145087
C00630,41659,29,48.85465872224966,2.6668404677316144,Place Claude Monet,Place Claude Monet,48.8548705,2.6671035,StopPoint:node:4317604494,Route:relation:6145086,Line:relation:6145087
C00630,417796,29,48.88190927207319,2.704995768403806,Gare de Lagny Thorigny,Gare de Lagny - Thorigny,48.8819744,2.7063441999999998,StopPoint:node:4848176372,Route:relation:3937116,Line:relation:6145087
C00630,482436,29,48.83876068058384,2.6549390642784534,Gare de Torcy,Torcy RER,48.8387557,2.6549297,StopPoint:node:3900938553,Route:relation:6145086,Line:relation:6145087
C00631,15216,32,48.763327363805416,2.774192181374114,Place,Favières Place,48.763386,2.7742453,StopPoint:node:4332455247,Route:relation:7728547,Line:relation:6994039
C00631,15217,32,48.76335485963809,2.774464153715124,Place,Favières Place,48.763359699999995,2.7744071999999997,StopPoint:node:6555996283,Route:relation:2657536,Line:relation:6994039
C00631,15218,32,48.768087750720255,2.7755593789968684,Rue du Marronnier,Rue du Marronnier,48.7681471,2.7755218,StopPoint:node:6211510308,Route:relation:7728547,Line:relation:6994039
C00631,15219,32,48.76790794982265,2.775600969364758,Rue du Marronnier,Rue du Marronnier,48.76795,2.7756357,StopPoint:node:6211510307,Route:relation:2657536,Line:relation:6994039
C00631,15223,32,48.743631581491584,2.7521374712513427,Collège Vermay,Collège Jean-Baptiste Vermay,48.743645699999995,2.7521497999999998,StopPoint:node:4396412362,Route:relation:2657536,Line:relation:6994039
C00631,15229,32,48.826457400498526,2.790659005331154,Le Gibet,Le Gibet,48.826467,2.7906869999999997,StopPoint:node:6555996273,Route:relation:2657536,Line:relation:6994039
C00631,15229,32,48.826457400498526,2.790659005331154,Le Gibet,Le Gibet,48.826467,2.7906869999999997,StopPoint:node:6555996273,Route:relation:7728547,Line:relation:6994039
C00631,15230,32,48.81594072605704,2.793969609843542,Eglise,Église,48.8159201,2.7939222999999997,StopPoint:node:5674711650,Route:relation:2657536,Line:relation:6994039
C00631,15231,32,48.815876996293426,2.7935204591613076,Eglise,Église,48.815886,2.7935261,StopPoint:node:6555996269,Route:relation:7728547,Line:relation:6994039
C00631,15250,32,48.84139273874381,2.784059053372761,Les Pléïades,Les Pléïades,48.841408,2.7841098,StopPoint:node:2311920979,Route:relation:2657536,Line:relation:6994039
C00631,15412,32,48.81630684540869,2.792456524319224,Mairie,Mairie,48.816313,2.7924629999999997,StopPoint:node:6555996274,Route:relation:2657536,Line:relation:6994039
C00631,15413,32,48.815839419512706,2.7925945671310415,Mairie,Mairie,48.8158533,2.7925804,StopPoint:node:6555996272,Route:relation:2657536,Line:relation:6994039
C00631,15413,32,48.815839419512706,2.7925945671310415,Mairie,Mairie,48.8158533,2.7925804,StopPoint:node:6555996272,Route:relation:7728547,Line:relation:6994039
C00631,15438,32,48.80460672048107,2.787656027622735,Dénicherie 2,Dénicherie 2,48.804581999999996,2.7876000999999997,StopPoint:node:6555996268,Route:relation:7728547,Line:relation:6994039
C00631,15439,32,48.80401227146695,2.7871683018244315,Dénicherie 2,Dénicherie 2,48.8039779,2.7871550999999997,StopPoint:node:4321917512,Route:relation:2657536,Line:relation:6994039
C00631,15460,32,48.80053041985629,2.781464521268518,La Route,La Route,48.8003225,2.7811858999999997,StopPoint:node:6555996266,Route:relation:7728547,Line:relation:6994039
C00631,15461,32,48.80027817498612,2.7812341368003515,La Route,La Route,48.800290999999994,2.7813063,StopPoint:node:4325607083,Route:relation:2657536,Line:relation:6994039
C00631,15462,32,48.80230863079406,2.7850241277022256,Dénicherie 1,Denicherie 1,48.802405199999995,2.7851760999999997,StopPoint:node:6555996280,Route:relation:2657536,Line:relation:6994039
C00631,15484,32,48.814840952736,2.8263438915993837,Clos Saint Nicolas,Clos Saint-Nicolas,48.8149363,2.8263742,StopPoint:node:4332377501,Route:relation:2657536,Line:relation:6994039
C00631,15484,32,48.814840952736,2.8263438915993837,Clos Saint Nicolas,Clos Saint-Nicolas,48.8149363,2.8263742,StopPoint:node:4332377501,Route:relation:7728547,Line:relation:6994039
C00631,15518,32,48.745219500998616,2.7634450076440777,Cimetière,Tournan Cimetière,48.7452817,2.7634612,StopPoint:node:6211510309,Route:relation:7728547,Line:relation:6994039
C00631,15519,32,48.745075703904995,2.7635000582559974,Cimetière,Tournan Cimetière,48.7450548,2.7635237999999998,StopPoint:node:6555998185,Route:relation:2657536,Line:relation:6994039
C00631,15579,32,48.84156416385101,2.789412956985741,Pressoir-Parc d'Entreprises,Pressoir,48.8416092,2.7895015,StopPoint:node:1937468689,Route:relation:2657536,Line:relation:6994039
C00631,15580,32,48.84157363652954,2.7896854181682165,Pressoir-Parc d'Entreprises,Pressoir,48.841542999999994,2.7896121,StopPoint:node:1937468724,Route:relation:7728547,Line:relation:6994039
C00631,15640,32,48.83940229923617,2.792582553287895,Le Prieuré - Parc d'Entreprises,Prieuré - Parc d'Entreprises,48.8394816,2.7924781999999997,StopPoint:node:4326515852,Route:relation:7728547,Line:relation:6994039
C00631,15641,32,48.83956417892803,2.792581909097957,Le Prieuré - Parc d'Entreprises,Prieuré - Parc d'Entreprises,48.8395127,2.7926816999999997,StopPoint:node:5225654058,Route:relation:2657536,Line:relation:6994039
C00631,15715,32,48.81198430956952,2.8286410978557344,Jules Ferry,Jules Ferry,48.811989,2.828665,StopPoint:node:6555996277,Route:relation:2657536,Line:relation:6994039
C00631,15715,32,48.81198430956952,2.8286410978557344,Jules Ferry,Jules Ferry,48.811989,2.828665,StopPoint:node:6555996277,Route:relation:7728547,Line:relation:6994039
C00631,15763,32,48.80217289322578,2.7845617879007456,Dénicherie 1,Denicherie 1,48.802374,2.784966,StopPoint:node:6555996267,Route:relation:7728547,Line:relation:6994039
C00631,22486,32,48.85113393851662,2.7703366984562745,Centre Hospitalier,Centre Hospitalier,48.8511935,2.7704082999999997,StopPoint:node:5225418004,Route:relation:2657536,Line:relation:6994039
C00631,22487,32,48.850420771924064,2.768936230083416,Centre Hospitalier,Centre Hospitalier,48.850358,2.76888,StopPoint:node:4610182108,Route:relation:7728547,Line:relation:6994039
C00631,22488,32,48.85319850588949,2.7730123191246627,Centre Urbain (accès RER),Centre Urbain (accès RER),48.853245699999995,2.7730737999999997,StopPoint:node:5225627092,Route:relation:2657536,Line:relation:6994039
C00631,22489,32,48.85323370242246,2.772603324916784,Centre Urbain (accès RER),Centre Urbain (accès RER),48.8531592,2.7725351,StopPoint:node:4323538095,Route:relation:7728547,Line:relation:6994039
C00631,23425,32,48.837489755524466,2.7943476473776556,CCI,CCI,48.8374411,2.7942717,StopPoint:node:6211510306,Route:relation:2657536,Line:relation:6994039
C00631,23426,32,48.837678146733495,2.794074425046322,CCI,CCI,48.837678999999994,2.794108,StopPoint:node:6555996270,Route:relation:7728547,Line:relation:6994039
C00631,411237,32,48.739581742546115,2.7597309893729696,Gare de Tournan-en-Brie (Côté guichet),Gare de Tournan-en-Brie,48.7396532,2.7595188999999998,StopPoint:node:2830511721,Route:relation:2657536,Line:relation:6994039
C00631,411237,32,48.739581742546115,2.7597309893729696,Gare de Tournan-en-Brie (Côté guichet),Gare de Tournan-en-Brie,48.7396532,2.7595188999999998,StopPoint:node:2830511721,Route:relation:7728547,Line:relation:6994039
C00631,41655,32,48.83182503460126,2.800322992657206,Villages Nature,Villages Nature (RD231),48.8317921,2.8003896999999998,StopPoint:node:6555996276,Route:relation:2657536,Line:relation:6994039
C00631,41655,32,48.83182503460126,2.800322992657206,Villages Nature,Villages Nature (RD231),48.8317921,2.8003896999999998,StopPoint:node:6555996276,Route:relation:7728547,Line:relation:6994039
C00631,6831,32,48.814692473791446,2.8294084210522588,Mairie,Villeneuve-le-Comte - Marie,48.814667899999996,2.8293787,StopPoint:node:5767520349,Route:relation:2657536,Line:relation:6994039
C00631,6831,32,48.814692473791446,2.8294084210522588,Mairie,Villeneuve-le-Comte - Marie,48.814667899999996,2.8293787,StopPoint:node:5767520349,Route:relation:7728547,Line:relation:6994039
C00632,10492,34,48.84608116743217,2.8182685060001837,École des Girandoles,École des Girandoles,48.8461122,2.8182842999999997,StopPoint:node:2995793845,Route:relation:6145134,Line:relation:14396876
C00632,10493,34,48.84672708050604,2.8231989766907413,Place de la Mairie,Place de la Mairie,48.846736799999995,2.8231995999999997,StopPoint:node:2995793846,Route:relation:6145134,Line:relation:14396876
C00632,12606,34,48.85416288166114,2.8161415689431037,L'Orme Rond,L'Orme Rond,48.854167999999994,2.8161424,StopPoint:node:2311789993,Route:relation:3948425,Line:relation:14396876
C00632,15211,34,48.859305386573965,2.815087572426588,Pré de Bray,Pré de Bray,48.859316799999995,2.8150736999999997,StopPoint:node:5300875618,Route:relation:3948425,Line:relation:14396876
C00632,15212,34,48.859232597630836,2.81454264756836,Pré de Bray,Pré de Bray,48.8592574,2.8145892999999997,StopPoint:node:5300875619,Route:relation:6145134,Line:relation:14396876
C00632,15248,34,48.85055308301438,2.7869237138378957,Les Marmousets,Les Marmousets,48.850612299999995,2.7869261,StopPoint:node:1578564147,Route:relation:6145134,Line:relation:14396876
C00632,15249,34,48.85025606378839,2.786788655873719,Les Marmousets,Les Marmousets,48.850267699999996,2.7867542,StopPoint:node:1578564146,Route:relation:3948425,Line:relation:14396876
C00632,15250,34,48.84139273874381,2.784059053372761,Les Pléïades,Les Pléïades,48.841408,2.7841098,StopPoint:node:2311920979,Route:relation:6145134,Line:relation:14396876
C00632,15251,34,48.841159281703504,2.784264393613361,Les Pléïades,Les Pléïades,48.841183699999995,2.784216,StopPoint:node:2311920977,Route:relation:3948425,Line:relation:14396876
C00632,15316,34,48.84559010898371,2.7826654331382397,Place Thomas le Pileur,Place Thomas le Pileur,48.8455594,2.7827172,StopPoint:node:1578564064,Route:relation:6145134,Line:relation:14396876
C00632,15317,34,48.84550017634047,2.782665808175457,Place Thomas le Pileur,Place Thomas le Pileur,48.8455837,2.7825591999999997,StopPoint:node:1578564066,Route:relation:3948425,Line:relation:14396876
C00632,15359,34,48.84939648743718,2.8282727922651194,Boulevard des Artisans,Boulevard des Artisans,48.8493996,2.8283272,StopPoint:node:2995793848,Route:relation:3948425,Line:relation:14396876
C00632,15557,34,48.8489586600762,2.8122081310716602,Armières,Armières,48.8489587,2.8121981,StopPoint:node:4324381427,Route:relation:6145134,Line:relation:14396876
C00632,15558,34,48.84877870958895,2.8121542721494963,Armières,Armières,48.848760999999996,2.8122083,StopPoint:node:5466589543,Route:relation:3948425,Line:relation:14396876
C00632,15560,34,48.85196291619246,2.818357014860818,Les Genêts,Les Genêts,48.8520003,2.8183266,StopPoint:node:5002850362,Route:relation:3948425,Line:relation:14396876
C00632,15576,34,48.85323770970563,2.8168807459256655,L'Orme Rond,L'Orme Rond,48.8533299,2.8169022,StopPoint:node:2311789978,Route:relation:6145134,Line:relation:14396876
C00632,15577,34,48.84321903218124,2.7946384247185945,Robert Thiboust,Robert Thiboust,48.843266,2.7947352,StopPoint:node:1937467778,Route:relation:6145134,Line:relation:14396876
C00632,15578,34,48.84336430203314,2.7954417531799804,Robert Thiboust,Robert Thiboust,48.8433801,2.7954125999999997,StopPoint:node:1937468224,Route:relation:3948425,Line:relation:14396876
C00632,15579,34,48.84156416385101,2.789412956985741,Pressoir-Parc d'Entreprises,Pressoir,48.8416092,2.7895015,StopPoint:node:1937468689,Route:relation:6145134,Line:relation:14396876
C00632,15580,34,48.84157363652954,2.7896854181682165,Pressoir-Parc d'Entreprises,Pressoir,48.841542999999994,2.7896121,StopPoint:node:1937468724,Route:relation:3948425,Line:relation:14396876
C00632,15581,34,48.86765302481359,2.8163665923455286,Clé des Champs,Clé des Champs,48.867643099999995,2.8162742,StopPoint:node:2130536605,Route:relation:3948425,Line:relation:14396876
C00632,15582,34,48.867544164959746,2.815753547162901,Clé des Champs,Clé des Champs,48.867544699999996,2.8157544999999997,StopPoint:node:2130536602,Route:relation:6145134,Line:relation:14396876
C00632,15584,34,48.84628519127422,2.828541942011289,CAT,CAT,48.8462369,2.8285431,StopPoint:node:2995793847,Route:relation:3948425,Line:relation:14396876
C00632,15586,34,48.87082125619107,2.7957974388715856,Santa Fé,Santa Fe,48.870810899999995,2.7957788,StopPoint:node:6554999490,Route:relation:3948425,Line:relation:14396876
C00632,15587,34,48.87065603945577,2.79384862800287,Séquoia Lodge,Sequoia Lodge,48.8706487,2.7938682,StopPoint:node:2274924818,Route:relation:6145134,Line:relation:14396876
C00632,15590,34,48.85015787120425,2.820080334440065,Place de l'Europe,Place de l'Europe,48.850046899999995,2.8197277,StopPoint:node:2995793850,Route:relation:3948425,Line:relation:14396876
C00632,15601,34,48.869265222541,2.8121349254373027,Collège Jacqueline de Romilly,Collège Jacqueline de Romilly,48.869441099999996,2.8120966999999997,StopPoint:node:4326673473,Route:relation:3948425,Line:relation:14396876
C00632,15603,34,48.86721554610873,2.8126194256480765,ZAC du Centre,ZAC du Centre,48.8672146,2.8126056,StopPoint:node:2274924812,Route:relation:3948425,Line:relation:14396876
C00632,15604,34,48.86708015838543,2.8123063850577856,ZAC du Centre,ZAC du Centre,48.867087299999994,2.8123335999999997,StopPoint:node:6586444347,Route:relation:6145134,Line:relation:14396876
C00632,15607,34,48.84396043237753,2.8254429575729536,Marsange,Marsange,48.843950299999996,2.8254534,StopPoint:node:5466589541,Route:relation:3948425,Line:relation:14396876
C00632,15609,34,48.850083429876854,2.8244549174788665,Gymnase,Gymnase,48.850118699999996,2.8244544,StopPoint:node:2995793849,Route:relation:3948425,Line:relation:14396876
C00632,15615,34,48.845341015213926,2.81649971399085,École des Girandoles,École des Girandoles,48.8453795,2.8164932,StopPoint:node:5466589542,Route:relation:3948425,Line:relation:14396876
C00632,15642,34,48.85270117333674,2.7861926522867297,Garonne,Garonne,48.852719199999996,2.7862065,StopPoint:node:2625807505,Route:relation:6145134,Line:relation:14396876
C00632,15643,34,48.87773829400149,2.8131405787198744,La Boucle des Trois Ormes,La Boucle des Trois Ormes,48.8777336,2.8131866999999997,StopPoint:node:1607613667,Route:relation:3948425,Line:relation:14396876
C00632,15644,34,48.87719867058334,2.8131152461786817,La Boucle des Trois Ormes,La Boucle des Trois Ormes,48.877208499999995,2.8130989,StopPoint:node:1607613654,Route:relation:6145134,Line:relation:14396876
C00632,15659,34,48.85629536980551,2.784460671980215,Hôtel de Ville,Hôtel de Ville / Adagio,48.8563063,2.7845074,StopPoint:node:5466589545,Route:relation:3948425,Line:relation:14396876
C00632,15660,34,48.85642070926922,2.7841466897684413,Hôtel de Ville,Hôtel de Ville / Adagio,48.8564297,2.784077,StopPoint:node:2299194512,Route:relation:6145134,Line:relation:14396876
C00632,15666,34,48.84791118074542,2.815250641767151,Rue de Bellesmes,Rue de Bellesmes,48.8479241,2.8152504,StopPoint:node:5002850321,Route:relation:3948425,Line:relation:14396876
C00632,15667,34,48.84736387271583,2.816083797019458,Rue de Bellesmes,Rue de Bellesmes,48.8473682,2.8161141,StopPoint:node:2995793844,Route:relation:6145134,Line:relation:14396876
C00632,15719,34,48.862691799815174,2.8183332386848097,La Boiserie,La Boiserie,48.8626934,2.8183491,StopPoint:node:2274924815,Route:relation:3948425,Line:relation:14396876
C00632,15720,34,48.86247550897372,2.818034123500516,La Boiserie,La Boiserie,48.8624946,2.8180413,StopPoint:node:2274924813,Route:relation:6145134,Line:relation:14396876
C00632,21146,34,48.85673445534865,2.778666555707317,Lycée Emilie du Châtelet,Lycée Émilie du Châtelet,48.856773399999994,2.7793353,StopPoint:node:2299194516,Route:relation:6145134,Line:relation:14396876
C00632,21146,34,48.85673445534865,2.778666555707317,Lycée Emilie du Châtelet,Lycée Émilie du Châtelet,48.8567282,2.7788123,StopPoint:node:2299194549,Route:relation:3948425,Line:relation:14396876
C00632,21783,34,48.85231487908261,2.786425909591751,Garonne,Garonne,48.852329999999995,2.7864112,StopPoint:node:2624788797,Route:relation:3948425,Line:relation:14396876
C00632,22490,34,48.84477735482611,2.8014315617576067,Centre Aquatique,Centre Aquatique,48.8447598,2.8014126,StopPoint:node:5466589544,Route:relation:3948425,Line:relation:14396876
C00632,22491,34,48.84499337430865,2.8015397455986637,Centre Aquatique,Centre Aquatique,48.8449512,2.8013904999999997,StopPoint:node:4332395004,Route:relation:6145134,Line:relation:14396876
C00632,426626,34,48.87627739232592,2.804979028505991,Hôtels du Val de France,Hôtels du Val de France,48.876252799999996,2.8049516999999997,StopPoint:node:8016958211,Route:relation:3948425,Line:relation:14396876
C00632,426628,34,48.87693474776956,2.805508301526986,Hôtels du Val de France,Hôtels du Val de France,48.8770751,2.805583,StopPoint:node:8016958212,Route:relation:6145134,Line:relation:14396876
C00633,15225,37,48.87179526210127,2.6816862037220575,Rie,RIE,48.8713896,2.6812492,StopPoint:node:6555578798,Route:relation:9700442,Line:relation:7224864
C00633,15226,37,48.87163320658016,2.6816190295559563,Rie,RIE,48.871628699999995,2.6816519999999997,StopPoint:node:6555578806,Route:relation:3936208,Line:relation:7224864
C00633,15264,37,48.87084527985704,2.700382420367319,Alsace Lorraine,Alsace-Lorraine,48.870859599999996,2.7003545,StopPoint:node:3533259615,Route:relation:9700442,Line:relation:7224864
C00633,15265,37,48.87116003581405,2.7003806098850025,Alsace Lorraine,Alsace-Lorraine,48.8711329,2.7004126999999998,StopPoint:node:2131046679,Route:relation:3936208,Line:relation:7224864
C00633,15269,37,48.87565417629089,2.6854119559599883,Ampère,Ampère,48.8756193,2.6854012999999997,StopPoint:node:2995657983,Route:relation:9700442,Line:relation:7224864
C00633,15270,37,48.875744213593826,2.685452314050104,Ampère,Ampère,48.8757221,2.6854720999999997,StopPoint:node:3066285080,Route:relation:3936208,Line:relation:7224864
C00633,15276,37,48.86481536760305,2.709509042599383,Orme Bossu,Orme Bossu,48.864840199999996,2.7093453999999997,StopPoint:node:2992242963,Route:relation:9700442,Line:relation:7224864
C00633,15277,37,48.86494117147721,2.709467447719105,Orme Bossu,Orme Bossu,48.8649279,2.7094662,StopPoint:node:2992242962,Route:relation:3936208,Line:relation:7224864
C00633,15295,37,48.87842954414144,2.694475882873245,Aureau,Aureau,48.8784402,2.6951693999999997,StopPoint:node:4319959255,Route:relation:9700442,Line:relation:7224864
C00633,15303,37,48.86729463037447,2.719623600644716,Lycée Van Dongen,Lycée Van Dongen,48.867159799999996,2.7195538999999997,StopPoint:node:2131046593,Route:relation:3936208,Line:relation:7224864
C00633,15303,37,48.86729463037447,2.719623600644716,Lycée Van Dongen,Lycée Van Dongen,48.867159799999996,2.7195538999999997,StopPoint:node:2131046593,Route:relation:9700442,Line:relation:7224864
C00633,15304,37,48.869735549658635,2.70255635303712,Beau Site,Beau Site,48.8697186,2.7025856999999998,StopPoint:node:2991570039,Route:relation:9700442,Line:relation:7224864
C00633,15305,37,48.86979021894385,2.7028423212958472,Beau Site,Beau Site,48.8697866,2.7029022,StopPoint:node:2991570038,Route:relation:3936208,Line:relation:7224864
C00633,15310,37,48.8701424519063,2.7183404512797273,Piscine de Lagny,Piscine de Lagny,48.871246299999996,2.718111,StopPoint:node:4839942375,Route:relation:9700442,Line:relation:7224864
C00633,15310,37,48.8701424519063,2.7183404512797273,Piscine de Lagny,Piscine de Lagny,48.871236599999996,2.7180220999999998,StopPoint:node:6555578813,Route:relation:3936208,Line:relation:7224864
C00633,15395,37,48.86530825214509,2.7162810115076312,Thuyas,Thuyas,48.865303499999996,2.7163005,StopPoint:node:2992242961,Route:relation:9700442,Line:relation:7224864
C00633,15396,37,48.86534461211102,2.71644438823686,Thuyas,Thuyas,48.8653534,2.7164113999999997,StopPoint:node:2992242960,Route:relation:3936208,Line:relation:7224864
C00633,15405,37,48.87856409874962,2.7014696951315122,Verdun,Verdun,48.8785719,2.7015127,StopPoint:node:2991484604,Route:relation:9700442,Line:relation:7224864
C00633,15406,37,48.87908609855089,2.701630321021339,Verdun,Verdun,48.8790446,2.701679,StopPoint:node:2991484603,Route:relation:3936208,Line:relation:7224864
C00633,15422,37,48.86871852785157,2.688112106993163,Mairie,Saint-Thibault Mairie,48.8687111,2.6881588,StopPoint:node:3063817389,Route:relation:3936208,Line:relation:7224864
C00633,15423,37,48.86887275821507,2.6886292060561696,Mairie,Saint-Thibault Mairie,48.8688674,2.6886161,StopPoint:node:3063817390,Route:relation:9700442,Line:relation:7224864
C00633,15443,37,48.87885641468999,2.722029250666157,Cimetière,Cimetière de Lagny,48.878865399999995,2.7220353999999998,StopPoint:node:5259247236,Route:relation:3936208,Line:relation:7224864
C00633,15444,37,48.87896423537165,2.7219877708255216,Cimetière,Cimetière de Lagny,48.8789588,2.722089,StopPoint:node:5259247235,Route:relation:9700442,Line:relation:7224864
C00633,15451,37,48.88079062979517,2.7223325380231924,Canada,Canada,48.880747799999995,2.7219886,StopPoint:node:4322890864,Route:relation:9700442,Line:relation:7224864
C00633,15452,37,48.87746605999572,2.719705188939489,Rue Roger,Rue Roger,48.8774856,2.7197782,StopPoint:node:2992242944,Route:relation:3936208,Line:relation:7224864
C00633,15455,37,48.880003106217366,2.7163100384311614,Imprimerie,Imprimerie,48.8800655,2.7158716,StopPoint:node:4325025864,Route:relation:9700442,Line:relation:7224864
C00633,15511,37,48.87499283345395,2.6939506914463043,Rothschild,Rothschild,48.875009999999996,2.6939965,StopPoint:node:3065584325,Route:relation:3936208,Line:relation:7224864
C00633,15512,37,48.87483953419667,2.6937879874780597,Rothschild,Rothschild,48.8748285,2.6937523999999997,StopPoint:node:3065584326,Route:relation:9700442,Line:relation:7224864
C00633,15513,37,48.873166709624925,2.6902531658455215,Fontaine,Fontaine,48.873127,2.6903037999999997,StopPoint:node:3063817391,Route:relation:3936208,Line:relation:7224864
C00633,15514,37,48.87326580904501,2.6903207431235585,Fontaine,Fontaine,48.873247,2.6903633,StopPoint:node:3065584327,Route:relation:9700442,Line:relation:7224864
C00633,15534,37,48.868601350998325,2.705766370272825,Tous Vents,Touvents,48.8685896,2.7059246,StopPoint:node:2991570037,Route:relation:9700442,Line:relation:7224864
C00633,15537,37,48.8687541993126,2.705751874798483,Tous Vents,Touvents,48.8687653,2.705664,StopPoint:node:2991570036,Route:relation:3936208,Line:relation:7224864
C00633,15574,37,48.87858446137848,2.7060644731557915,Delambre,Delambre,48.878591899999996,2.7060922,StopPoint:node:2991484610,Route:relation:3936208,Line:relation:7224864
C00633,15588,37,48.87901243392396,2.7082299929194806,La Poste,La Poste,48.8790431,2.708233,StopPoint:node:2991484611,Route:relation:9700442,Line:relation:7224864
C00633,15599,37,48.87994034931865,2.716392190577674,Imprimerie,Imprimerie,48.8799837,2.7158555,StopPoint:node:5259240721,Route:relation:3936208,Line:relation:7224864
C00633,15663,37,48.87247114895765,2.6960650066363043,Foyer,Foyer,48.8723931,2.6960813999999997,StopPoint:node:4839942369,Route:relation:9700442,Line:relation:7224864
C00633,15663,37,48.87247114895765,2.6960650066363043,Foyer,Foyer,48.872474,2.6961,StopPoint:node:6555578812,Route:relation:3936208,Line:relation:7224864
C00633,15671,37,48.86721725781142,2.706114981075129,Georges Seurat,Georges Seurat (Collège des 4 Arpents),48.8672317,2.7060993,StopPoint:node:6555199191,Route:relation:9700442,Line:relation:7224864
C00633,15672,37,48.86684894380102,2.7062806384626055,Georges Seurat,Georges Seurat,48.866814999999995,2.7063403999999998,StopPoint:node:4839942373,Route:relation:3936208,Line:relation:7224864
C00633,15677,37,48.876559871846204,2.7206099204274823,La Gendarmerie,La Gendarmerie,48.876574299999994,2.7205387,StopPoint:node:2131074456,Route:relation:3936208,Line:relation:7224864
C00633,15688,37,48.87326409471837,2.700245806913977,Henri Dunant,Henri Dunant,48.8728482,2.7002158,StopPoint:node:2991570040,Route:relation:9700442,Line:relation:7224864
C00633,15689,37,48.87294051702653,2.700315835191809,Henri Dunant,Henri Dunant,48.8728853,2.7003568,StopPoint:node:4839942370,Route:relation:3936208,Line:relation:7224864
C00633,15703,37,48.86790655777818,2.676966056292385,Intermarché,Intermarché,48.867906,2.6769578999999997,StopPoint:node:3066285078,Route:relation:9700442,Line:relation:7224864
C00633,15704,37,48.867880608178616,2.6773479109386806,Intermarché,Intermarché,48.8678745,2.6773683999999998,StopPoint:node:3066285077,Route:relation:3936208,Line:relation:7224864
C00633,15709,37,48.874071625115405,2.685503315424321,Jacquard,Jacquard,48.8740354,2.6852514999999997,StopPoint:node:3066285079,Route:relation:9700442,Line:relation:7224864
C00633,15710,37,48.874081727725056,2.6859258940361634,Jacquard,Jacquard,48.8740581,2.6857566999999998,StopPoint:node:2995657984,Route:relation:3936208,Line:relation:7224864
C00633,15713,37,48.87018154265416,2.683590984785711,Joncs,Joncs,48.870146,2.6839307999999997,StopPoint:node:5212713856,Route:relation:3936208,Line:relation:7224864
C00633,15714,37,48.870100857625545,2.6836869023547614,Joncs,Joncs,48.870101899999995,2.6837229,StopPoint:node:5212713855,Route:relation:9700442,Line:relation:7224864
C00633,15717,37,48.87117184649038,2.69087850296903,Kennedy,Kennedy,48.8711564,2.6908189,StopPoint:node:7710096291,Route:relation:3936208,Line:relation:7224864
C00633,15718,37,48.870575838697214,2.689927756868641,Kennedy,Kennedy,48.870602399999996,2.6899686,StopPoint:node:5506487878,Route:relation:9700442,Line:relation:7224864
C00633,15731,37,48.87819466963855,2.6905641282430626,La Pointe,La Pointe,48.878169199999995,2.6904732,StopPoint:node:2995657982,Route:relation:3936208,Line:relation:7224864
C00633,417796,37,48.88190927207319,2.704995768403806,Gare de Lagny Thorigny,Gare de Lagny - Thorigny,48.8819744,2.7063441999999998,StopPoint:node:4848176372,Route:relation:3936208,Line:relation:7224864
C00633,417796,37,48.88190927207319,2.704995768403806,Gare de Lagny Thorigny,Gare de Lagny - Thorigny,48.8819744,2.7063441999999998,StopPoint:node:4848176372,Route:relation:3936208,Line:relation:7224864
C00633,417796,37,48.88190927207319,2.704995768403806,Gare de Lagny Thorigny,Gare de Lagny - Thorigny,48.8819744,2.7063441999999998,StopPoint:node:4848176372,Route:relation:9700442,Line:relation:7224864
C00633,417796,37,48.88190927207319,2.704995768403806,Gare de Lagny Thorigny,Gare de Lagny - Thorigny,48.8819744,2.7063441999999998,StopPoint:node:4848176372,Route:relation:9700442,Line:relation:7224864
C00633,424725,37,48.868770955298615,2.6807095373721164,Centre Culturel,Centre Culturel,48.8687474,2.680708,StopPoint:node:6555578796,Route:relation:9700442,Line:relation:7224864
C00633,424728,37,48.86875209603751,2.6803824814987065,Centre Culturel,Centre Culturel,48.8687562,2.6803662999999998,StopPoint:node:6555578808,Route:relation:3936208,Line:relation:7224864
C00633,462667,37,48.8693427441832,2.718631053110041,Piscine de Lagny,Piscine de Lagny,48.871246299999996,2.718111,StopPoint:node:4839942375,Route:relation:9700442,Line:relation:7224864
C00633,462669,37,48.874443531802335,2.727124502614183,Infroit,Infroit,48.8742555,2.7271916999999997,StopPoint:node:6555578815,Route:relation:3936208,Line:relation:7224864
C00633,462672,37,48.874452990805466,2.727328957154648,Infroit,Infroit,48.874431699999995,2.7272593,StopPoint:node:6555578799,Route:relation:9700442,Line:relation:7224864
C00633,462721,37,48.869647495437924,2.6789183229068,Lamartine,Lamartine,48.8698051,2.6790985,StopPoint:node:6555578797,Route:relation:9700442,Line:relation:7224864
C00633,462723,37,48.869693228170625,2.6792043212442302,Lamartine,Lamartine,48.8696895,2.6791959999999997,StopPoint:node:6555578807,Route:relation:3936208,Line:relation:7224864
C00634,10492,42,48.84608116743217,2.8182685060001837,École des Girandoles,École des Girandoles,48.8461122,2.8182842999999997,StopPoint:node:2995793845,Route:relation:9700151,Line:relation:6147928
C00634,10493,42,48.84672708050604,2.8231989766907413,Place de la Mairie,Place de la Mairie,48.846736799999995,2.8231995999999997,StopPoint:node:2995793846,Route:relation:9700151,Line:relation:6147928
C00634,11071,42,48.848768325314154,2.829228740875718,Boulevard des Artisans,Boulevard des Artisans,48.848742599999994,2.8292281999999997,StopPoint:node:6555199187,Route:relation:9700151,Line:relation:6147928
C00634,12606,42,48.85416288166114,2.8161415689431037,L'Orme Rond,L'Orme Rond,48.854167999999994,2.8161424,StopPoint:node:2311789993,Route:relation:9700152,Line:relation:6147928
C00634,15211,42,48.859305386573965,2.815087572426588,Pré de Bray,Pré de Bray,48.859316799999995,2.8150736999999997,StopPoint:node:5300875618,Route:relation:9700152,Line:relation:6147928
C00634,15212,42,48.859232597630836,2.81454264756836,Pré de Bray,Pré de Bray,48.8592574,2.8145892999999997,StopPoint:node:5300875619,Route:relation:9700151,Line:relation:6147928
C00634,15250,42,48.84139273874381,2.784059053372761,Les Pléïades,Les Pléïades,48.841408,2.7841098,StopPoint:node:2311920979,Route:relation:9700151,Line:relation:6147928
C00634,15250,42,48.84139273874381,2.784059053372761,Les Pléïades,Les Pléïades,48.841408,2.7841098,StopPoint:node:2311920979,Route:relation:9700152,Line:relation:6147928
C00634,15258,42,48.878130552908424,2.711711751170058,Metz,Metz,48.8781259,2.7117145,StopPoint:node:2991484612,Route:relation:2659188,Line:relation:6147928
C00634,15259,42,48.86702039331802,2.8086396948510837,Rue du Moulin à Vent,Rue du Moulin à Vent,48.8670543,2.8086135999999997,StopPoint:node:2274924817,Route:relation:9700152,Line:relation:6147928
C00634,15260,42,48.866841684251376,2.8093628246844613,Rue du Moulin à Vent,Rue du Moulin à Vent,48.8668762,2.8093041,StopPoint:node:2274924811,Route:relation:9700151,Line:relation:6147928
C00634,15274,42,48.87422051059153,2.7239899553060507,Orly Parc RD231,Orly Parc - RD231,48.8742607,2.7239323,StopPoint:node:2131074384,Route:relation:2659188,Line:relation:6147928
C00634,15275,42,48.87436443019124,2.724002826240695,Orly Parc RD231,Orly Parc - RD231,48.8745051,2.7236873,StopPoint:node:2131074401,Route:relation:6147927,Line:relation:6147928
C00634,15303,42,48.86729463037447,2.719623600644716,Lycée Van Dongen,Lycée Van Dongen,48.867159799999996,2.7195538999999997,StopPoint:node:2131046593,Route:relation:9700151,Line:relation:6147928
C00634,15303,42,48.86729463037447,2.719623600644716,Lycée Van Dongen,Lycée Van Dongen,48.867159799999996,2.7195538999999997,StopPoint:node:2131046593,Route:relation:9700152,Line:relation:6147928
C00634,15337,42,48.87790764745801,2.716280548811583,Pouzol,Pouzol,48.8779621,2.7161211,StopPoint:node:4320154321,Route:relation:2659188,Line:relation:6147928
C00634,15338,42,48.87819390228676,2.715638163568065,Pouzol,Pouzol,48.8782065,2.7155571,StopPoint:node:5259356651,Route:relation:6147927,Line:relation:6147928
C00634,15359,42,48.84939648743718,2.8282727922651194,Boulevard des Artisans,Boulevard des Artisans,48.8493996,2.8283272,StopPoint:node:2995793848,Route:relation:9700152,Line:relation:6147928
C00634,15374,42,48.875304661813196,2.703506186048347,Saint Joseph,Saint-Joseph,48.875318799999995,2.7034141,StopPoint:node:2131074444,Route:relation:2659188,Line:relation:6147928
C00634,15375,42,48.875394895592706,2.703628377198485,Saint Joseph,Saint-Joseph,48.8753868,2.7036757,StopPoint:node:2131074446,Route:relation:6147927,Line:relation:6147928
C00634,15406,42,48.87908609855089,2.701630321021339,Verdun,Verdun,48.8790446,2.701679,StopPoint:node:2991484603,Route:relation:6147927,Line:relation:6147928
C00634,15467,42,48.83788934767709,2.753569386937193,Cheval Blanc,Cheval Blanc,48.837878599999996,2.7536302999999998,StopPoint:node:4590685693,Route:relation:9700152,Line:relation:6147928
C00634,15468,42,48.83794431697912,2.7540595925642957,Cheval Blanc,Cheval Blanc,48.8379487,2.7541452,StopPoint:node:4590685692,Route:relation:9700151,Line:relation:6147928
C00634,15515,42,48.87748707161379,2.7210003443135773,Georges Clémenceau,Georges Clemenceau,48.877513799999996,2.7210389999999998,StopPoint:node:2131074463,Route:relation:9700151,Line:relation:6147928
C00634,15515,42,48.87748707161379,2.7210003443135773,Georges Clémenceau,Georges Clemenceau,48.877513799999996,2.7210389999999998,StopPoint:node:2131074463,Route:relation:9700152,Line:relation:6147928
C00634,15544,42,48.84024371000597,2.752645404422763,Courberonne,Courberonne,48.8402491,2.7526694,StopPoint:node:4590685690,Route:relation:9700152,Line:relation:6147928
C00634,15545,42,48.840046364299674,2.752891583622916,Courberonne,Courberonne,48.8400999,2.7529238,StopPoint:node:4590685691,Route:relation:9700151,Line:relation:6147928
C00634,15557,42,48.8489586600762,2.8122081310716602,Armières,Armières,48.8489587,2.8121981,StopPoint:node:4324381427,Route:relation:9700151,Line:relation:6147928
C00634,15558,42,48.84877870958895,2.8121542721494963,Armières,Armières,48.848760999999996,2.8122083,StopPoint:node:5466589543,Route:relation:9700152,Line:relation:6147928
C00634,15559,42,48.85209737973882,2.8180703641913345,Les Genêts,Les Genêts,48.8521034,2.8180508,StopPoint:node:5002850361,Route:relation:9700151,Line:relation:6147928
C00634,15560,42,48.85196291619246,2.818357014860818,Les Genêts,Les Genêts,48.8520003,2.8183266,StopPoint:node:5002850362,Route:relation:9700152,Line:relation:6147928
C00634,15561,42,48.873530621264685,2.709869438462858,Saint-Laurent (Rue Brébion),Saint-Laurent - Brébion,48.8735219,2.7098388,StopPoint:node:796509688,Route:relation:9700151,Line:relation:6147928
C00634,15561,42,48.873530621264685,2.709869438462858,Saint-Laurent (Rue Brébion),Saint-Laurent - Brébion,48.8735219,2.7098388,StopPoint:node:796509688,Route:relation:9700152,Line:relation:6147928
C00634,15576,42,48.85323770970563,2.8168807459256655,L'Orme Rond,L'Orme Rond,48.8533299,2.8169022,StopPoint:node:2311789978,Route:relation:9700151,Line:relation:6147928
C00634,15577,42,48.84321903218124,2.7946384247185945,Robert Thiboust,Robert Thiboust,48.843266,2.7947352,StopPoint:node:1937467778,Route:relation:9700151,Line:relation:6147928
C00634,15578,42,48.84336430203314,2.7954417531799804,Robert Thiboust,Robert Thiboust,48.8433801,2.7954125999999997,StopPoint:node:1937468224,Route:relation:9700152,Line:relation:6147928
C00634,15579,42,48.84156416385101,2.789412956985741,Pressoir-Parc d'Entreprises,Pressoir,48.8416092,2.7895015,StopPoint:node:1937468689,Route:relation:9700151,Line:relation:6147928
C00634,15580,42,48.84157363652954,2.7896854181682165,Pressoir-Parc d'Entreprises,Pressoir,48.841542999999994,2.7896121,StopPoint:node:1937468724,Route:relation:9700152,Line:relation:6147928
C00634,15581,42,48.86765302481359,2.8163665923455286,Clé des Champs,Clé des Champs,48.867643099999995,2.8162742,StopPoint:node:2130536605,Route:relation:9700152,Line:relation:6147928
C00634,15582,42,48.867544164959746,2.815753547162901,Clé des Champs,Clé des Champs,48.867544699999996,2.8157544999999997,StopPoint:node:2130536602,Route:relation:9700151,Line:relation:6147928
C00634,15584,42,48.84628519127422,2.828541942011289,CAT,CAT,48.8462369,2.8285431,StopPoint:node:2995793847,Route:relation:9700152,Line:relation:6147928
C00634,15588,42,48.87901243392396,2.7082299929194806,La Poste,La Poste,48.8790431,2.708233,StopPoint:node:2991484611,Route:relation:6147927,Line:relation:6147928
C00634,15589,42,48.85015823980069,2.8203256228437437,Place de l'Europe,Place de l'Europe,48.8501845,2.8203389,StopPoint:node:6555199189,Route:relation:9700151,Line:relation:6147928
C00634,15590,42,48.85015787120425,2.820080334440065,Place de l'Europe,Place de l'Europe,48.850046899999995,2.8197277,StopPoint:node:2995793850,Route:relation:9700152,Line:relation:6147928
C00634,15603,42,48.86721554610873,2.8126194256480765,ZAC du Centre,ZAC du Centre,48.8672146,2.8126056,StopPoint:node:2274924812,Route:relation:9700152,Line:relation:6147928
C00634,15604,42,48.86708015838543,2.8123063850577856,ZAC du Centre,ZAC du Centre,48.867087299999994,2.8123335999999997,StopPoint:node:6586444347,Route:relation:9700151,Line:relation:6147928
C00634,15607,42,48.84396043237753,2.8254429575729536,Marsange,Marsange,48.843950299999996,2.8254534,StopPoint:node:5466589541,Route:relation:9700152,Line:relation:6147928
C00634,15608,42,48.84999349747802,2.824455220429501,Gymnase,Gymnase,48.8497998,2.825026,StopPoint:node:6555199188,Route:relation:9700151,Line:relation:6147928
C00634,15609,42,48.850083429876854,2.8244549174788665,Gymnase,Gymnase,48.850118699999996,2.8244544,StopPoint:node:2995793849,Route:relation:9700152,Line:relation:6147928
C00634,15615,42,48.845341015213926,2.81649971399085,École des Girandoles,École des Girandoles,48.8453795,2.8164932,StopPoint:node:5466589542,Route:relation:9700152,Line:relation:6147928
C00634,15625,42,48.85623042854206,2.7553634207616,Clos du Chêne,Clos du Chêne,48.8562478,2.7552499999999998,StopPoint:node:2991961868,Route:relation:2659188,Line:relation:6147928
C00634,15626,42,48.85644620884608,2.7553351498926832,Clos du Chêne,Clos du Chêne,48.856493799999996,2.7553158,StopPoint:node:4590685704,Route:relation:6147927,Line:relation:6147928
C00634,15666,42,48.84791118074542,2.815250641767151,Rue de Bellesmes,Rue de Bellesmes,48.8479241,2.8152504,StopPoint:node:5002850321,Route:relation:9700152,Line:relation:6147928
C00634,15667,42,48.84736387271583,2.816083797019458,Rue de Bellesmes,Rue de Bellesmes,48.8473682,2.8161141,StopPoint:node:2995793844,Route:relation:9700151,Line:relation:6147928
C00634,15671,42,48.86721725781142,2.706114981075129,Georges Seurat,Georges Seurat (Collège des 4 Arpents),48.8672317,2.7060993,StopPoint:node:6555199191,Route:relation:9700152,Line:relation:6147928
C00634,15672,42,48.86684894380102,2.7062806384626055,Georges Seurat,Georges Seurat,48.866814999999995,2.7063403999999998,StopPoint:node:4839942373,Route:relation:9700151,Line:relation:6147928
C00634,15673,42,48.87617781630076,2.7074959984197897,Galliéni,Galliéni,48.8761854,2.7075329,StopPoint:node:2991484608,Route:relation:2659188,Line:relation:6147928
C00634,15674,42,48.87670803593454,2.707343044366622,Galliéni,Galliéni,48.8761995,2.7073452,StopPoint:node:2991484609,Route:relation:6147927,Line:relation:6147928
C00634,15677,42,48.876559871846204,2.7206099204274823,La Gendarmerie,La Gendarmerie,48.876574299999994,2.7205387,StopPoint:node:2131074456,Route:relation:2659188,Line:relation:6147928
C00634,15678,42,48.87705145630653,2.7193120257655417,La Gendarmerie,La Gendarmerie,48.8770691,2.7193008,StopPoint:node:2131074458,Route:relation:6147927,Line:relation:6147928
C00634,15687,42,48.87619812970537,2.7011560383293856,Lagny Thorigny / Foch,Foch,48.876372599999996,2.7010376,StopPoint:node:2991484607,Route:relation:2659188,Line:relation:6147928
C00634,15719,42,48.862691799815174,2.8183332386848097,La Boiserie,La Boiserie,48.8626934,2.8183491,StopPoint:node:2274924815,Route:relation:9700152,Line:relation:6147928
C00634,15720,42,48.86247550897372,2.818034123500516,La Boiserie,La Boiserie,48.8624946,2.8180413,StopPoint:node:2274924813,Route:relation:9700151,Line:relation:6147928
C00634,22486,42,48.85113393851662,2.7703366984562745,Centre Hospitalier,Centre Hospitalier,48.8511935,2.7704082999999997,StopPoint:node:5225418004,Route:relation:2659188,Line:relation:6147928
C00634,22487,42,48.850420771924064,2.768936230083416,Centre Hospitalier,Centre Hospitalier,48.850358,2.76888,StopPoint:node:4610182108,Route:relation:6147927,Line:relation:6147928
C00634,22488,42,48.85319850588949,2.7730123191246627,Centre Urbain (accès RER),Centre Urbain (accès RER),48.853245699999995,2.7730737999999997,StopPoint:node:5225627092,Route:relation:2659188,Line:relation:6147928
C00634,22489,42,48.85323370242246,2.772603324916784,Centre Urbain (accès RER),Centre Urbain (accès RER),48.8531592,2.7725351,StopPoint:node:4323538095,Route:relation:6147927,Line:relation:6147928
C00634,22490,42,48.84477735482611,2.8014315617576067,Centre Aquatique,Centre Aquatique,48.8447598,2.8014126,StopPoint:node:5466589544,Route:relation:9700152,Line:relation:6147928
C00634,22491,42,48.84499337430865,2.8015397455986637,Centre Aquatique,Centre Aquatique,48.8449512,2.8013904999999997,StopPoint:node:4332395004,Route:relation:9700151,Line:relation:6147928
C00634,22492,42,48.852457546338314,2.7619497493751424,Centre de Radiologie,Centre de Radiologie,48.8525109,2.7618423,StopPoint:node:4320084527,Route:relation:2659188,Line:relation:6147928
C00634,22493,42,48.85271845759319,2.7620030690410107,Centre de Radiologie,Centre de Radiologie,48.852678,2.7620739999999997,StopPoint:node:4590685706,Route:relation:6147927,Line:relation:6147928
C00634,412405,42,48.881821355737216,2.705814399354461,Gare de Lagny Thorigny,Gare de Lagny - Thorigny,48.8819083,2.7059116999999997,StopPoint:node:4848176375,Route:relation:2659188,Line:relation:6147928
C00634,412406,42,48.881945814773225,2.70522736628953,Gare de Lagny Thorigny,Gare de Lagny - Thorigny,48.8819003,2.7051164,StopPoint:node:4848176377,Route:relation:6147927,Line:relation:6147928
C00634,418859,42,48.862708690884276,2.743965147052356,Bois de Chigny,Bois de Chigny,48.862575,2.7441362,StopPoint:node:4321233092,Route:relation:2659188,Line:relation:6147928
C00634,418862,42,48.86295226253054,2.7443183452787983,Bois de Chigny,Bois de Chigny,48.862929699999995,2.7439991,StopPoint:node:6555199190,Route:relation:6147927,Line:relation:6147928
C00634,471093,42,48.87711636622521,2.7015325305763582,Foch / Paix Notre Dame,Foch - Paix Notre-Dame,48.8771437,2.7015058,StopPoint:node:2991484606,Route:relation:6147927,Line:relation:6147928
C00635,10533,43,48.879178372769104,2.7819376101406768,Parking Nord,Parking Nord,48.8791819,2.781911,StopPoint:node:5805223911,Route:relation:6147761,Line:relation:14396875
C00635,15318,43,48.873229816077064,2.7520933950613635,Bicheret,Bicheret,48.873384599999994,2.7519785999999997,StopPoint:node:5504567843,Route:relation:6147761,Line:relation:14396875
C00635,15319,43,48.87306839307838,2.752312295023158,Bicheret,Bicheret,48.872989,2.7523838,StopPoint:node:474671243,Route:relation:3950998,Line:relation:14396875
C00635,15320,43,48.86853722015273,2.7529745460260577,Binaches,Binaches,48.868637899999996,2.752906,StopPoint:node:4590685710,Route:relation:6147761,Line:relation:14396875
C00635,15321,43,48.86934538477678,2.7523845265924405,Binaches,Binaches,48.8692606,2.7524656999999997,StopPoint:node:4332647838,Route:relation:3950998,Line:relation:14396875
C00635,15324,43,48.87864470599556,2.756989742754312,Glacière,Glacière,48.8781402,2.7552464999999997,StopPoint:node:6554999496,Route:relation:3950998,Line:relation:14396875
C00635,15325,43,48.878680401102216,2.756853229239025,Glacière,Glacière,48.878314599999996,2.7562911999999997,StopPoint:node:6554999489,Route:relation:6147761,Line:relation:14396875
C00635,15330,43,48.86639588977904,2.7613680607610953,Bois de Loselet,Bois de Loselet,48.8663916,2.7614227,StopPoint:node:4307818626,Route:relation:3950998,Line:relation:14396875
C00635,15331,43,48.866861842244994,2.7605207670652203,Bois de Loselet,Bois de Loselet,48.8668621,2.7604007999999998,StopPoint:node:5586744263,Route:relation:6147761,Line:relation:14396875
C00635,15368,43,48.87614823707528,2.750007130570086,Sophora,Sophora,48.8761593,2.7500693999999997,StopPoint:node:474671240,Route:relation:3950998,Line:relation:14396875
C00635,15369,43,48.87573481494391,2.7501318202596075,Sophora,Sophora,48.8757644,2.7501145,StopPoint:node:5195714956,Route:relation:6147761,Line:relation:14396875
C00635,15524,43,48.878144910129414,2.7501066230299323,Fontaine au Roi,Fontaine au Roi,48.878152,2.7501211999999997,StopPoint:node:5586723529,Route:relation:6147761,Line:relation:14396875
C00635,15586,43,48.87082125619107,2.7957974388715856,Santa Fé,Santa Fe,48.870810899999995,2.7957788,StopPoint:node:6554999490,Route:relation:3950998,Line:relation:14396875
C00635,15587,43,48.87065603945577,2.79384862800287,Séquoia Lodge,Sequoia Lodge,48.8706487,2.7938682,StopPoint:node:2274924818,Route:relation:6147761,Line:relation:14396875
C00635,15627,43,48.87804737993599,2.7507751831555542,Fontaine au Roi,Fontaine au Roi,48.878062,2.7506996,StopPoint:node:5915262131,Route:relation:3950998,Line:relation:14396875
C00635,15631,43,48.8672522725261,2.757901685060629,Parc du Mont Evrain,Parc du Mont Evrain,48.8672645,2.7578158,StopPoint:node:4324426001,Route:relation:6147761,Line:relation:14396875
C00635,15632,43,48.86743952535744,2.7571101730981913,Parc du Mont Evrain,Parc du Mont Evrain,48.8674414,2.7572232,StopPoint:node:4324426000,Route:relation:3950998,Line:relation:14396875
C00635,15635,43,48.879692765010056,2.7685200271243167,Ecoles,Écoles,48.8797163,2.7685679999999997,StopPoint:node:4405403340,Route:relation:6147761,Line:relation:14396875
C00635,15636,43,48.87991919482315,2.769350756588586,Ecoles,Écoles,48.8799133,2.7693136999999997,StopPoint:node:5586723528,Route:relation:3950998,Line:relation:14396875
C00635,15651,43,48.85505998255583,2.7636550525271417,Eugène Isabey,Eugène Isabey,48.8550861,2.7636607,StopPoint:node:4590685708,Route:relation:6147761,Line:relation:14396875
C00635,15652,43,48.85564365003733,2.7632026591379253,Eugène Isabey,Eugène Isabey,48.8556755,2.7631934,StopPoint:node:4590685709,Route:relation:3950998,Line:relation:14396875
C00635,15657,43,48.87905252303597,2.7819667701123847,Parking Nord,Parking Nord,48.879055,2.7819347999999997,StopPoint:node:5805223882,Route:relation:3950998,Line:relation:14396875
C00635,16928,43,48.85485931523967,2.771465068817354,Fontaine Rouge,Fontaine Rouge (accès RER),48.854878799999994,2.7714958999999997,StopPoint:node:2187139784,Route:relation:6147761,Line:relation:14396875
C00635,18067,43,48.879275873213466,2.7886659944410384,CAMSP,C.A.M.S.P.,48.879278799999994,2.7886595,StopPoint:node:5341437379,Route:relation:3950998,Line:relation:14396875
C00635,18779,43,48.87939248498137,2.7884972669926045,C.A.M.S.P.,C.A.M.S.P.,48.879385299999996,2.7884884,StopPoint:node:5341437380,Route:relation:6147761,Line:relation:14396875
C00635,18782,43,48.8541309474891,2.766848281140248,Prague,Prague,48.8541039,2.7667952,StopPoint:node:5586723531,Route:relation:6147761,Line:relation:14396875
C00635,18783,43,48.85399458680969,2.7660993385325767,Prague,Prague,48.853997,2.766127,StopPoint:node:6554999494,Route:relation:3950998,Line:relation:14396875
C00635,22484,43,48.8632943286053,2.7619138634738425,Buffard,Buffard,48.8632316,2.7619194,StopPoint:node:4326045781,Route:relation:3950998,Line:relation:14396875
C00635,22485,43,48.86291648216032,2.7618474373854522,Buffard,Buffard,48.8629776,2.7618594,StopPoint:node:4326045780,Route:relation:6147761,Line:relation:14396875
C00635,41470,43,48.87886119899049,2.766355799742771,Chessy / Mairie,Mairie de Chessy,48.8782808,2.7652072,StopPoint:node:2966604555,Route:relation:3950998,Line:relation:14396875
C00635,41470,43,48.87886119899049,2.766355799742771,Chessy / Mairie,Mairie de Chessy,48.8788592,2.76634,StopPoint:node:2966604556,Route:relation:6147761,Line:relation:14396875
C00635,462418,43,48.859226714527566,2.76056949074715,Louis de Vion,Louis de Vion,48.8574215,2.7617369,StopPoint:node:5979563076,Route:relation:3950998,Line:relation:14396875
C00635,462421,43,48.85729552569124,2.761750467506183,Louis de Vion,Louis de Vion,48.857411199999994,2.7616017,StopPoint:node:5979563075,Route:relation:6147761,Line:relation:14396875
C00635,472596,43,48.87830141962321,2.7652266398021474,Chessy / Mairie,Mairie de Chessy,48.8782808,2.7652072,StopPoint:node:2966604555,Route:relation:3950998,Line:relation:14396875
C00635,482562,43,48.88127058189277,2.775357968090766,Artisans,Artisans,48.8812735,2.7753851999999997,StopPoint:node:2992336949,Route:relation:3950998,Line:relation:14396875
C00636,15243,44,48.84355290486577,2.7160315546324645,Lys,Lys,48.8435773,2.716129,StopPoint:node:1603469653,Route:relation:7524060,Line:relation:7728420
C00636,15297,44,48.83224931241163,2.720329749859112,Avenue de l'Europe 1,Avenue de l'Europe 1,48.832236699999996,2.720243,StopPoint:node:4325737934,Route:relation:7524060,Line:relation:7728420
C00636,15298,44,48.83226602375231,2.7197847571114857,Avenue de l'Europe 1,Avenue de l'Europe 1,48.8322796,2.7199025,StopPoint:node:4325740831,Route:relation:7728419,Line:relation:7728420
C00636,15329,44,48.83177253476067,2.732061232553176,Bois de Bussy,Bois de Bussy,48.8317924,2.732123,StopPoint:node:4590685696,Route:relation:7524060,Line:relation:7728420
C00636,15329,44,48.83177253476067,2.732061232553176,Bois de Bussy,Bois de Bussy,48.8317924,2.732123,StopPoint:node:4590685696,Route:relation:7728419,Line:relation:7728420
C00636,15366,44,48.84016049889038,2.7152325585414374,Buissonnière,Mini Gare Lycée Martin Luther King,48.8402484,2.7151931,StopPoint:node:4590685701,Route:relation:7524060,Line:relation:7728420
C00636,15367,44,48.84071801744586,2.7152022629142363,Buissonnière,Buissonnière,48.840664399999994,2.7152347,StopPoint:node:1583667134,Route:relation:7728419,Line:relation:7728420
C00636,15520,44,48.839790150592556,2.7260933430714593,Antoine Bourdelle,Antoine Bourdelle,48.8398513,2.7261291,StopPoint:node:4318070056,Route:relation:7728419,Line:relation:7728420
C00636,15521,44,48.83965409590429,2.7255899513756483,Antoine Bourdelle,Antoine Bourdelle,48.839655799999996,2.7255922999999997,StopPoint:node:4318070053,Route:relation:7524060,Line:relation:7728420
C00636,15553,44,48.84436035157188,2.722867276085145,Pagnol,Pagnol,48.8444077,2.7229764999999997,StopPoint:node:3687269560,Route:relation:7524060,Line:relation:7728420
C00636,15554,44,48.84430658140834,2.722949316343798,Pagnol,Pagnol,48.8443189,2.7230029,StopPoint:node:3687269561,Route:relation:7728419,Line:relation:7728420
C00636,15645,44,48.83264297838223,2.739331262523718,Rome,Rome,48.832662299999996,2.7394767,StopPoint:node:4323163201,Route:relation:7524060,Line:relation:7728420
C00636,15645,44,48.83264297838223,2.739331262523718,Rome,Rome,48.832662299999996,2.7394767,StopPoint:node:4323163201,Route:relation:7728419,Line:relation:7728420
C00636,15679,44,48.84519429448545,2.7296621919977992,Jacqueline Auriol,Jacqueline Auriol,48.845213,2.7297778,StopPoint:node:3687269556,Route:relation:7524060,Line:relation:7728420
C00636,15680,44,48.845205224400765,2.73052057036777,Jacqueline Auriol,Jacqueline Auriol,48.8452209,2.7305099999999998,StopPoint:node:3687269557,Route:relation:7728419,Line:relation:7728420
C00636,15725,44,48.830993428833786,2.725594673157921,La Haye,La Haye,48.8310033,2.7256263,StopPoint:node:4321339638,Route:relation:7524060,Line:relation:7728420
C00636,15725,44,48.830993428833786,2.725594673157921,La Haye,La Haye,48.8310033,2.7256263,StopPoint:node:4321339638,Route:relation:7728419,Line:relation:7728420
C00636,15755,44,48.8402479352584,2.729660597940015,Jacques de Thou,Jacques de Thou,48.8402791,2.7296904,StopPoint:node:4318070071,Route:relation:7728419,Line:relation:7728420
C00636,15756,44,48.840130622103885,2.7294840862561562,Jacques de Thou,Jacques de Thou,48.840117799999994,2.7294178,StopPoint:node:4318070066,Route:relation:7524060,Line:relation:7728420
C00636,16923,44,48.84404976538527,2.7207978278598968,Genêts,Genêts,48.8440556,2.7208334,StopPoint:node:3687269562,Route:relation:7728419,Line:relation:7728420
C00636,21710,44,48.84472553796946,2.737240582789148,Collège Claude Monet,Collège Claude Monet,48.8446533,2.737262,StopPoint:node:2991961867,Route:relation:7728419,Line:relation:7728420
C00636,23562,44,48.83162048145291,2.7093125922015857,Mendès France,Mendès France,48.831567799999995,2.7094340999999997,StopPoint:node:4318076982,Route:relation:7524060,Line:relation:7728420
C00636,23563,44,48.831738023757936,2.709570763240394,Mendès France,Mendès France,48.8317972,2.7095306,StopPoint:node:6683232785,Route:relation:7728419,Line:relation:7728420
C00638,10533,24,48.879178372769104,2.7819376101406768,Parking Nord,Parking Nord,48.8791819,2.781911,StopPoint:node:5805223911,Route:relation:6130401,Line:relation:14396877
C00638,15239,24,48.88285651488297,2.772269440426566,Saint-Eloi,Saint-Éloi,48.8829366,2.7722420999999997,StopPoint:node:2992336950,Route:relation:3936863,Line:relation:14396877
C00638,15240,24,48.88308118316468,2.772186642912868,Saint-Eloi,Saint-Éloi,48.883101499999995,2.772242,StopPoint:node:1454937242,Route:relation:6130401,Line:relation:14396877
C00638,15301,24,48.88550748462188,2.771235111520605,Louis Pasteur,Louis Pasteur,48.8855256,2.7712627,StopPoint:node:4590698182,Route:relation:3936863,Line:relation:14396877
C00638,15301,24,48.88550748462188,2.771235111520605,Louis Pasteur,Louis Pasteur,48.8856399,2.7714224,StopPoint:node:5265220239,Route:relation:6130401,Line:relation:14396877
C00638,15302,24,48.88563367221697,2.771384558773624,Louis Pasteur,Louis Pasteur,48.8856399,2.7714224,StopPoint:node:5265220239,Route:relation:6130401,Line:relation:14396877
C00638,15390,24,48.895468880290004,2.77449200045827,Calvaire,Calvaire,48.895483899999995,2.7745015,StopPoint:node:4319940893,Route:relation:3936863,Line:relation:14396877
C00638,15391,24,48.89542414709293,2.7746149458637044,Calvaire,Calvaire,48.895425599999996,2.7746484,StopPoint:node:4590698185,Route:relation:6130401,Line:relation:14396877
C00638,15403,24,48.89231965225358,2.7735918767604675,Vaillant,Vaillant,48.8924028,2.7736018,StopPoint:node:4590698183,Route:relation:3936863,Line:relation:14396877
C00638,15404,24,48.892364848661934,2.773714424668994,Vaillant,Vaillant,48.89233,2.7737138999999997,StopPoint:node:4590698184,Route:relation:6130401,Line:relation:14396877
C00638,15427,24,48.88714568033891,2.772005218199235,Château,Château,48.8872176,2.7721023,StopPoint:node:5265220241,Route:relation:3936863,Line:relation:14396877
C00638,15428,24,48.887343913940896,2.77220890460084,Château,Château,48.8873363,2.7722306,StopPoint:node:5265220240,Route:relation:6130401,Line:relation:14396877
C00638,15586,24,48.87082125619107,2.7957974388715856,Santa Fé,Santa Fe,48.870810899999995,2.7957788,StopPoint:node:6554999490,Route:relation:3936863,Line:relation:14396877
C00638,15587,24,48.87065603945577,2.79384862800287,Séquoia Lodge,Sequoia Lodge,48.8706487,2.7938682,StopPoint:node:2274924818,Route:relation:6130401,Line:relation:14396877
C00638,15657,24,48.87905252303597,2.7819667701123847,Parking Nord,Parking Nord,48.879055,2.7819347999999997,StopPoint:node:5805223882,Route:relation:3936863,Line:relation:14396877
C00638,15705,24,48.91668985473659,2.7380779746009267,Ile de Loisirs,Île de Loisirs,48.916718499999995,2.7381140999999998,StopPoint:node:4320006352,Route:relation:3936863,Line:relation:14396877
C00638,15705,24,48.91668985473659,2.7380779746009267,Ile de Loisirs,Île de Loisirs,48.916718499999995,2.7381140999999998,StopPoint:node:4320006352,Route:relation:6130401,Line:relation:14396877
C00638,15707,24,48.91790763797213,2.761404757173815,Mairie,Jablines Mairie,48.917893299999996,2.7614794,StopPoint:node:1799961694,Route:relation:3936863,Line:relation:14396877
C00638,15708,24,48.917863244921826,2.761691504860198,Mairie,Jablines Mairie,48.9178772,2.7617065,StopPoint:node:5265241856,Route:relation:6130401,Line:relation:14396877
C00638,18067,24,48.879275873213466,2.7886659944410384,CAMSP,C.A.M.S.P.,48.879278799999994,2.7886595,StopPoint:node:5341437379,Route:relation:3936863,Line:relation:14396877
C00638,18779,24,48.87939248498137,2.7884972669926045,C.A.M.S.P.,C.A.M.S.P.,48.879385299999996,2.7884884,StopPoint:node:5341437380,Route:relation:6130401,Line:relation:14396877
C00638,482562,24,48.88127058189277,2.775357968090766,Artisans,Artisans,48.8812735,2.7753851999999997,StopPoint:node:2992336949,Route:relation:3936863,Line:relation:14396877
C00903,10533,06,48.879178372769104,2.7819376101406768,Parking Nord,Parking Nord,48.8791819,2.781911,StopPoint:node:5805223911,Route:relation:7380393,Line:relation:14396874
C00903,10575,06,48.89133944660444,2.7935076158320093,Mairie,Mairie,48.89141,2.7933795999999997,StopPoint:node:4590698292,Route:relation:7380394,Line:relation:14396874
C00903,10575,06,48.89133944660444,2.7935076158320093,Mairie,Mairie,48.891292899999996,2.793396,StopPoint:node:5805223880,Route:relation:7380393,Line:relation:14396874
C00903,10576,06,48.897415461312285,2.7916558121861574,Marais,Marais,48.8971886,2.7915748,StopPoint:node:5805223840,Route:relation:7380393,Line:relation:14396874
C00903,10577,06,48.9021529690716,2.795865507605882,Molveaux,Molveaux,48.902295599999995,2.7959513,StopPoint:node:4590698188,Route:relation:7380393,Line:relation:14396874
C00903,10578,06,48.90219804932846,2.7959335350131673,Molveaux,Molveaux,48.902102299999996,2.7958079,StopPoint:node:4590698289,Route:relation:7380394,Line:relation:14396874
C00903,10580,06,48.901059309112995,2.7926506289165545,Pierres,Pierres,48.9010277,2.7926032,StopPoint:node:4320348301,Route:relation:7380393,Line:relation:14396874
C00903,10581,06,48.90118542098554,2.7927728917618784,Pierres,Pierres,48.9012556,2.7927633999999997,StopPoint:node:3771812910,Route:relation:7380394,Line:relation:14396874
C00903,10582,06,48.89327793782486,2.796432205407359,Tamaris,Tamaris,48.8932857,2.7964442,StopPoint:node:5805223872,Route:relation:7380393,Line:relation:14396874
C00903,10582,06,48.89327793782486,2.796432205407359,Tamaris,Tamaris,48.8934558,2.7968425999999997,StopPoint:node:6677251413,Route:relation:7380394,Line:relation:14396874
C00903,10583,06,48.89553055084693,2.793736496962332,Touarte,Touarte,48.895566599999995,2.7938758999999997,StopPoint:node:5805223869,Route:relation:7380393,Line:relation:14396874
C00903,11079,06,48.90518523623616,2.802224251956572,Corbie,Corbie,48.9052772,2.8027846999999997,StopPoint:node:5805223881,Route:relation:7380393,Line:relation:14396874
C00903,11080,06,48.90532096031744,2.8027284774134262,Corbie,Corbie,48.905291299999995,2.8025891,StopPoint:node:5805223891,Route:relation:7380394,Line:relation:14396874
C00903,15586,06,48.87082125619107,2.7957974388715856,Santa Fé,Santa Fe,48.870810899999995,2.7957788,StopPoint:node:6554999490,Route:relation:7380394,Line:relation:14396874
C00903,15587,06,48.87065603945577,2.79384862800287,Séquoia Lodge,Sequoia Lodge,48.8706487,2.7938682,StopPoint:node:2274924818,Route:relation:7380393,Line:relation:14396874
C00903,15657,06,48.87905252303597,2.7819667701123847,Parking Nord,Parking Nord,48.879055,2.7819347999999997,StopPoint:node:5805223882,Route:relation:7380394,Line:relation:14396874
C00903,18067,06,48.879275873213466,2.7886659944410384,CAMSP,C.A.M.S.P.,48.879278799999994,2.7886595,StopPoint:node:5341437379,Route:relation:7380394,Line:relation:14396874
C00903,18779,06,48.87939248498137,2.7884972669926045,C.A.M.S.P.,C.A.M.S.P.,48.879385299999996,2.7884884,StopPoint:node:5341437380,Route:relation:7380393,Line:relation:14396874
C00903,20217,06,48.871016514647444,2.784072573892271,Chessy Nord - Quai G,Gare de Marne-la-Vallée - Chessy Nord,48.8709576,2.7841185,StopPoint:node:9543844823,Route:relation:7380393,Line:relation:14396874
C00903,417533,06,48.89720843599077,2.791547524419012,Marais,Marais,48.8974494,2.7916741,StopPoint:node:4955535162,Route:relation:7380394,Line:relation:14396874
C00903,419028,06,48.89242203379838,2.795508149018252,Suzanne Aubry,Suzanne Aubry,48.8923925,2.7954984,StopPoint:node:5805223875,Route:relation:7380393,Line:relation:14396874
C00903,419033,06,48.89626617998943,2.797961760177659,Aulnoye,Aulnoye,48.896276099999994,2.7979422,StopPoint:node:4320304262,Route:relation:7380393,Line:relation:14396874
C00903,419033,06,48.89626617998943,2.797961760177659,Aulnoye,Aulnoye,48.896205599999995,2.7981148,StopPoint:node:4955535163,Route:relation:7380394,Line:relation:14396874
C00903,420334,06,48.89559366527008,2.793831720670469,Touarte,Touarte,48.8954899,2.7939089999999998,StopPoint:node:5979369208,Route:relation:7380394,Line:relation:14396874
C00903,480064,06,48.896460620733784,2.8013026419492864,Fosse Saint-Etienne,Fosse Saint-Étienne,48.896476199999995,2.8013985999999997,StopPoint:node:4325023836,Route:relation:7380394,Line:relation:14396874
C00903,480735,06,48.896495980599035,2.8009342448027112,Fosse Saint-Etienne,Fosse Saint-Étienne,48.896504799999995,2.8008606,StopPoint:node:4325023835,Route:relation:7380393,Line:relation:14396874
C00911,10576,14,48.897415461312285,2.7916558121861574,Marais,Marais,48.8971886,2.7915748,StopPoint:node:5805223840,Route:relation:8108524,Line:relation:14454155
C00911,10583,14,48.89553055084693,2.793736496962332,Touarte,Touarte,48.895566599999995,2.7938758999999997,StopPoint:node:5805223869,Route:relation:8108524,Line:relation:14454155
C00911,10635,14,48.8957760343132,2.8175494804477315,Avenue Joffre,Avenue Joffre,48.895487599999996,2.8180799999999997,StopPoint:node:4590698300,Route:relation:8108525,Line:relation:14454155
C00911,10636,14,48.89551600893501,2.818055037517529,Avenue Joffre,Avenue Joffre,48.8957923,2.8175166,StopPoint:node:4590698301,Route:relation:8108524,Line:relation:14454155
C00911,10707,14,48.91802884343149,2.7635737568743557,Ecole / Rue de la Marne,École Jacques-Yves Coustaud,48.9180038,2.7635631999999997,StopPoint:node:1799961696,Route:relation:8108525,Line:relation:14454155
C00911,10722,14,48.90579959712277,2.7932592683174615,François la Chapelle,François de la Chapelle,48.9058333,2.7930804,StopPoint:node:4321027134,Route:relation:8108524,Line:relation:14454155
C00911,10724,14,48.90827681627559,2.780452825816809,Chemin des Vignes,Lesches Mairie,48.9087531,2.7802701,StopPoint:node:5265234266,Route:relation:8108524,Line:relation:14454155
C00911,10725,14,48.90836641861379,2.780275095887605,Chemin des Vignes,Lesches Mairie,48.908918199999995,2.780351,StopPoint:node:4590698186,Route:relation:8108525,Line:relation:14454155
C00911,10965,14,48.8846733841344,2.8389018122272747,Résidence du Grand Morin,Résidence Grand Morin,48.8846729,2.8388845,StopPoint:node:5712318732,Route:relation:8108524,Line:relation:14454155
C00911,10966,14,48.88413695711285,2.841262514958011,Résidence du Grand Morin,Résidence Grand Morin,48.884158899999996,2.8412631999999998,StopPoint:node:5712318727,Route:relation:8108525,Line:relation:14454155
C00911,15705,14,48.91668985473659,2.7380779746009267,Ile de Loisirs,Île de Loisirs,48.916718499999995,2.7381140999999998,StopPoint:node:4320006352,Route:relation:8108524,Line:relation:14454155
C00911,15705,14,48.91668985473659,2.7380779746009267,Ile de Loisirs,Île de Loisirs,48.916718499999995,2.7381140999999998,StopPoint:node:4320006352,Route:relation:8108525,Line:relation:14454155
C00911,15707,14,48.91790763797213,2.761404757173815,Mairie,Jablines Mairie,48.917893299999996,2.7614794,StopPoint:node:1799961694,Route:relation:8108525,Line:relation:14454155
C00911,15708,14,48.917863244921826,2.761691504860198,Mairie,Jablines Mairie,48.9178772,2.7617065,StopPoint:node:5265241856,Route:relation:8108524,Line:relation:14454155
C00911,19852,14,48.89662604272041,2.814736791757622,Prairie,Prairie,48.896744,2.8146432,StopPoint:node:4590698299,Route:relation:8108524,Line:relation:14454155
C00911,19853,14,48.89673385149306,2.81466821113648,Prairie,Prairie,48.896581999999995,2.8148497999999997,StopPoint:node:1607598573,Route:relation:8108525,Line:relation:14454155
C00911,32002,14,48.88593447711422,2.8338387469787287,Foch Turgot,Foch Turgot,48.885921599999996,2.8338018,StopPoint:node:4320911544,Route:relation:8108525,Line:relation:14454155
C00911,32003,14,48.88816895905418,2.8304359671000636,Foch Galliéni,Foch Galliéni,48.8881495,2.8304967,StopPoint:node:5805223885,Route:relation:8108524,Line:relation:14454155
C00911,32004,14,48.88807910697183,2.8304908081876414,Foch Galliéni,Foch Galliéni,48.888083699999996,2.8304487999999997,StopPoint:node:5805223892,Route:relation:8108525,Line:relation:14454155
C00911,411236,14,48.90117336466419,2.812756368049521,Esbly / Mairie,Mairie,48.9012105,2.8127698,StopPoint:node:1356696681,Route:relation:8108524,Line:relation:14454155
C00911,411236,14,48.90117336466419,2.812756368049521,Esbly / Mairie,Mairie,48.9012105,2.8127698,StopPoint:node:1356696681,Route:relation:8108525,Line:relation:14454155
C00911,417533,14,48.89720843599077,2.791547524419012,Marais,Marais,48.8974494,2.7916741,StopPoint:node:4955535162,Route:relation:8108525,Line:relation:14454155
C00911,419033,14,48.89626617998943,2.797961760177659,Aulnoye,Aulnoye,48.896276099999994,2.7979422,StopPoint:node:4320304262,Route:relation:8108524,Line:relation:14454155
C00911,419033,14,48.89626617998943,2.797961760177659,Aulnoye,Aulnoye,48.896205599999995,2.7981148,StopPoint:node:4955535163,Route:relation:8108525,Line:relation:14454155
C00911,420334,14,48.89559366527008,2.793831720670469,Touarte,Touarte,48.8954899,2.7939089999999998,StopPoint:node:5979369208,Route:relation:8108525,Line:relation:14454155
C00911,472216,14,48.90054369644386,2.8126495096675255,Esbly / Place de l'Europe,Place de l'Europe,48.9005057,2.8124441,StopPoint:node:1356696684,Route:relation:8108524,Line:relation:14454155
C00911,472216,14,48.90054369644386,2.8126495096675255,Esbly / Place de l'Europe,Place de l'Europe,48.9005057,2.8124441,StopPoint:node:1356696684,Route:relation:8108525,Line:relation:14454155
C00911,480465,14,48.89032224588666,2.8269240628571244,Gare de Montry-Condé,Gare de Montry - Condé,48.889904699999995,2.8275789,StopPoint:node:5805223916,Route:relation:8108525,Line:relation:14454155
C00911,480466,14,48.89038533421542,2.8270193172595843,Gare de Montry-Condé,Gare de Montry - Condé,48.8900687,2.8274946,StopPoint:node:5805223842,Route:relation:8108524,Line:relation:14454155
C00911,480474,14,48.8830523388564,2.843952074298261,Collège Stéphane Hessel,Collège Stéphane Hessel,48.8831893,2.8440216,StopPoint:node:5805223890,Route:relation:8108524,Line:relation:14454155
C00911,480474,14,48.8830523388564,2.843952074298261,Collège Stéphane Hessel,Collège Stéphane Hessel,48.8831893,2.8440216,StopPoint:node:5805223890,Route:relation:8108525,Line:relation:14454155
C00943,10637,57,48.90815043551219,2.806237491116093,Beaux Regards,Beaux Regards,48.9081232,2.8062622999999998,StopPoint:node:6676992144,Route:relation:1658284,Line:relation:7921048
C00943,10638,57,48.888486251398895,2.8082744269833313,Cézanne,Cézanne,48.888484899999995,2.8082635,StopPoint:node:5805223852,Route:relation:1658284,Line:relation:7921048
C00943,10639,57,48.88854044903012,2.8084242372177197,Cézanne,Cézanne,48.888550699999996,2.8084176999999997,StopPoint:node:5805223896,Route:relation:8107370,Line:relation:7921048
C00943,10640,57,48.89285033295689,2.8098404094103144,Montaigne,Montaigne,48.8928383,2.8097965,StopPoint:node:5805223847,Route:relation:1658284,Line:relation:7921048
C00943,10641,57,48.89291349965967,2.809976562693679,Montaigne,Montaigne,48.8929153,2.8099733,StopPoint:node:5805223860,Route:relation:8107370,Line:relation:7921048
C00943,10642,57,48.89033363969466,2.810681501599649,Péguy,Péguy,48.8903168,2.8106768,StopPoint:node:5805223838,Route:relation:1658284,Line:relation:7921048
C00943,10643,57,48.890423741214796,2.810790275965755,Péguy,Péguy,48.8904104,2.8108451,StopPoint:node:5805223866,Route:relation:8107370,Line:relation:7921048
C00943,12989,57,48.88967310341761,2.8138341769555653,Coeur de Pigeon,Cœur de Pigeon,48.889724,2.8138429,StopPoint:node:1607598156,Route:relation:8107370,Line:relation:7921048
C00943,12990,57,48.892329026199114,2.8157749495053057,Pomme d'Api,Pomme d'Api,48.8923148,2.8158441,StopPoint:node:1607598497,Route:relation:8107370,Line:relation:7921048
C00943,15586,57,48.87082125619107,2.7957974388715856,Santa Fé,Santa Fe,48.870810899999995,2.7957788,StopPoint:node:6554999490,Route:relation:1658284,Line:relation:7921048
C00943,15587,57,48.87065603945577,2.79384862800287,Séquoia Lodge,Sequoia Lodge,48.8706487,2.7938682,StopPoint:node:2274924818,Route:relation:8107370,Line:relation:7921048
C00943,411236,57,48.90117336466419,2.812756368049521,Esbly / Mairie,Mairie,48.9012105,2.8127698,StopPoint:node:1356696681,Route:relation:1658284,Line:relation:7921048
C00943,426626,57,48.87627739232592,2.804979028505991,Hôtels du Val de France,Hôtels du Val de France,48.876252799999996,2.8049516999999997,StopPoint:node:8016958211,Route:relation:1658284,Line:relation:7921048
C00943,426628,57,48.87693474776956,2.805508301526986,Hôtels du Val de France,Hôtels du Val de France,48.8770751,2.805583,StopPoint:node:8016958212,Route:relation:8107370,Line:relation:7921048
C00943,472216,57,48.90054369644386,2.8126495096675255,Esbly / Place de l'Europe,Place de l'Europe,48.9005057,2.8124441,StopPoint:node:1356696684,Route:relation:8107370,Line:relation:7921048
C00945,10533,60,48.879178372769104,2.7819376101406768,Parking Nord,Parking Nord,48.8791819,2.781911,StopPoint:node:5805223911,Route:relation:1658297,Line:relation:14638022
C00945,10549,60,48.898243932015696,2.845884307508269,Claires Fontaines,Claires Fontaines,48.8982749,2.8459395,StopPoint:node:5805223865,Route:relation:1658297,Line:relation:14638022
C00945,10549,60,48.898243932015696,2.845884307508269,Claires Fontaines,Claires Fontaines,48.898545999999996,2.8465350999999997,StopPoint:node:5805223910,Route:relation:10604884,Line:relation:14638022
C00945,10550,60,48.89640195288593,2.840215811467099,Les Grandes Pièces,Les Grandes Pièces,48.896406999999996,2.8402209999999997,StopPoint:node:5805223849,Route:relation:10604884,Line:relation:14638022
C00945,10551,60,48.89650968521955,2.8400790875404622,Les Grandes Pièces,Les Grandes Pièces,48.896499,2.8400905,StopPoint:node:5805223883,Route:relation:1658297,Line:relation:14638022
C00945,10552,60,48.89790845336717,2.8305406426010165,Village,Condé-Sainte-Libiaire - Village,48.8980044,2.8301944,StopPoint:node:5805223859,Route:relation:10604884,Line:relation:14638022
C00945,10844,60,48.88469899163388,2.831374530067772,RN34,RN 34,48.8846841,2.8312374,StopPoint:node:4590698304,Route:relation:1658297,Line:relation:14638022
C00945,10845,60,48.88454580383442,2.8311568469308224,RN34,RN 34,48.8845773,2.8312353,StopPoint:node:4590698305,Route:relation:10604884,Line:relation:14638022
C00945,10901,60,48.90021615613597,2.871072091855969,Les Prés Longs,Les Près Longs,48.900214999999996,2.8711162,StopPoint:node:5712318723,Route:relation:10604884,Line:relation:14638022
C00945,10902,60,48.90014535334667,2.8562725701438025,Les Roises,Les Roises,48.9001327,2.8562402,StopPoint:node:5805223912,Route:relation:1658297,Line:relation:14638022
C00945,10903,60,48.900082485297965,2.8563409450112136,Les Roises,Les Roises,48.900033,2.855892,StopPoint:node:5805223899,Route:relation:10604884,Line:relation:14638022
C00945,10904,60,48.89930115761472,2.8732022057019626,Mairie,Mairie,48.8992042,2.873161,StopPoint:node:5805223895,Route:relation:10604884,Line:relation:14638022
C00945,10904,60,48.89930115761472,2.8732022057019626,Mairie,Mairie,48.8991356,2.8733679999999997,StopPoint:node:5805223901,Route:relation:1658297,Line:relation:14638022
C00945,10905,60,48.89926504173343,2.8730658932624022,Mairie,Mairie,48.8992042,2.873161,StopPoint:node:5805223895,Route:relation:10604884,Line:relation:14638022
C00945,10905,60,48.89926504173343,2.8730658932624022,Mairie,Mairie,48.8991356,2.8733679999999997,StopPoint:node:5805223901,Route:relation:1658297,Line:relation:14638022
C00945,10906,60,48.89773077256042,2.876424984996702,Marie Curie,Marie Curie,48.8973453,2.8775538999999997,StopPoint:node:5805223861,Route:relation:10604884,Line:relation:14638022
C00945,10907,60,48.8975069462885,2.87739392636733,Marie Curie,Marie Curie,48.8974901,2.8774153,StopPoint:node:5805223904,Route:relation:1658297,Line:relation:14638022
C00945,10909,60,48.90034976070335,2.8618509002512598,René Benoist,René Benoît,48.9003422,2.8618883999999998,StopPoint:node:5805223843,Route:relation:1658297,Line:relation:14638022
C00945,10911,60,48.89777986186431,2.8804894841266715,Rue de Crécy,Rue de Crécy,48.897704499999996,2.880639,StopPoint:node:5805223850,Route:relation:10604884,Line:relation:14638022
C00945,10912,60,48.897717183728,2.880762420665136,Rue de Crécy,Rue de Crécy,48.8977844,2.8804730999999997,StopPoint:node:5805223854,Route:relation:1658297,Line:relation:14638022
C00945,10913,60,48.89773149716635,2.886231881858926,Philo,Rue Philo,48.89774,2.8862737,StopPoint:node:5805223844,Route:relation:10604884,Line:relation:14638022
C00945,10914,60,48.89778551911466,2.8862999620530827,Philo,Rue Philo,48.897794,2.8863079999999997,StopPoint:node:5805223851,Route:relation:1658297,Line:relation:14638022
C00945,11202,60,48.89475923530343,2.8357745809466772,Casimir Perier,Casimir Périer,48.8947739,2.8357585999999997,StopPoint:node:5805223862,Route:relation:1658297,Line:relation:14638022
C00945,11203,60,48.897240927732526,2.8290970258072896,Georges Pompidou,Georges Pompidou,48.8972055,2.8290504,StopPoint:node:5805223886,Route:relation:1658297,Line:relation:14638022
C00945,11204,60,48.89730411117972,2.8292604928871024,Georges Pompidou,Georges Pompidou,48.8972859,2.8292287999999997,StopPoint:node:5805223841,Route:relation:10604884,Line:relation:14638022
C00945,11205,60,48.8835148413226,2.8150834261286786,EID,EID,48.8835298,2.8150948,StopPoint:node:4332652789,Route:relation:1658297,Line:relation:14638022
C00945,11206,60,48.88339915163346,2.8158747193800373,EID,EID,48.8833878,2.8158935,StopPoint:node:4332652790,Route:relation:10604884,Line:relation:14638022
C00945,11207,60,48.89685999811353,2.861396420392388,La Dimeresse,La Dimeresse,48.897526299999996,2.8606355,StopPoint:node:5805223905,Route:relation:10604884,Line:relation:14638022
C00945,15657,60,48.87905252303597,2.7819667701123847,Parking Nord,Parking Nord,48.879055,2.7819347999999997,StopPoint:node:5805223882,Route:relation:10604884,Line:relation:14638022
C00945,18058,60,48.898746119712776,2.867229279044518,Champ Madame,Champ Madame,48.899426999999996,2.869013,StopPoint:node:5805223868,Route:relation:10604884,Line:relation:14638022
C00945,18059,60,48.899635102393475,2.8582381593140425,Mareuil,Mareuil,48.8996214,2.8582532,StopPoint:node:5805223887,Route:relation:10604884,Line:relation:14638022
C00945,18067,60,48.879275873213466,2.7886659944410384,CAMSP,C.A.M.S.P.,48.879278799999994,2.7886595,StopPoint:node:5341437379,Route:relation:10604884,Line:relation:14638022
C00945,18779,60,48.87939248498137,2.7884972669926045,C.A.M.S.P.,C.A.M.S.P.,48.879385299999996,2.7884884,StopPoint:node:5341437380,Route:relation:1658297,Line:relation:14638022
C00945,32003,60,48.88816895905418,2.8304359671000636,Foch Galliéni,Foch Galliéni,48.8881495,2.8304967,StopPoint:node:5805223885,Route:relation:10604884,Line:relation:14638022
C00945,32004,60,48.88807910697183,2.8304908081876414,Foch Galliéni,Foch Galliéni,48.888083699999996,2.8304487999999997,StopPoint:node:5805223892,Route:relation:1658297,Line:relation:14638022
C00945,417617,60,48.89733008625292,2.8635365761189657,Demi Lune,Demi-Lune,48.897343299999996,2.8635883,StopPoint:node:2211048073,Route:relation:10604884,Line:relation:14638022
C00945,426626,60,48.87627739232592,2.804979028505991,Hôtels du Val de France,Hôtels du Val de France,48.876252799999996,2.8049516999999997,StopPoint:node:8016958211,Route:relation:1658297,Line:relation:14638022
C00945,426628,60,48.87693474776956,2.805508301526986,Hôtels du Val de France,Hôtels du Val de France,48.8770751,2.805583,StopPoint:node:8016958212,Route:relation:10604884,Line:relation:14638022
C00945,480465,60,48.89032224588666,2.8269240628571244,Gare de Montry-Condé,Gare de Montry - Condé,48.889904699999995,2.8275789,StopPoint:node:5805223916,Route:relation:1658297,Line:relation:14638022
C00945,480466,60,48.89038533421542,2.8270193172595843,Gare de Montry-Condé,Gare de Montry - Condé,48.8900687,2.8274946,StopPoint:node:5805223842,Route:relation:10604884,Line:relation:14638022
C01713,15233,46,48.83362673210661,2.753698521246084,Bout Pêcheret,Bout Pêcheret,48.834184,2.7533996,StopPoint:node:4326537006,Route:relation:6147732,Line:relation:6147733
C01713,15234,46,48.83414784112067,2.753450844139615,Bout Pêcheret,Bout Pêcheret,48.833628,2.7536867,StopPoint:node:4590685695,Route:relation:3957778,Line:relation:6147733
C01713,15311,46,48.842499790602155,2.704523949256699,Place du Clos,Place du Clos,48.8425373,2.7047507,StopPoint:node:1494067866,Route:relation:3957778,Line:relation:6147733
C01713,15340,46,48.83318041654149,2.6759007045307763,Pré Longuet,Pré Longuet,48.8332577,2.67585,StopPoint:node:2094216252,Route:relation:6147732,Line:relation:6147733
C01713,15341,46,48.83364755225737,2.675707078646286,Pré Longuet,Pré Longuet,48.8336726,2.6756729999999997,StopPoint:node:2094216251,Route:relation:3957778,Line:relation:6147733
C01713,15344,46,48.83740422106491,2.6714602816992588,Poste,Collégien - Poste,48.8374472,2.6713492999999997,StopPoint:node:2094216225,Route:relation:6147732,Line:relation:6147733
C01713,15345,46,48.83784309410115,2.6708035602247895,Poste,Collégien - Poste,48.8378082,2.6708317999999998,StopPoint:node:2094216228,Route:relation:3957778,Line:relation:6147733
C01713,15470,46,48.839430167304435,2.669076851641673,Eglise / Collégien,Collégien - Église,48.839442899999995,2.6690576999999998,StopPoint:node:2094233594,Route:relation:6147732,Line:relation:6147733
C01713,15471,46,48.83942155085842,2.6692131511617623,Eglise / Collégien,Collégien - Église,48.8394262,2.6692088999999997,StopPoint:node:2094233593,Route:relation:3957778,Line:relation:6147733
C01713,15529,46,48.839935052981176,2.6599042774663912,Les Marchais,Les Marchais,48.8399418,2.6598924,StopPoint:node:2995657990,Route:relation:3957778,Line:relation:6147733
C01713,15530,46,48.83971925344964,2.6599193101245295,Les Marchais,Les Marchais,48.8397271,2.6598281,StopPoint:node:2995657991,Route:relation:6147732,Line:relation:6147733
C01713,15546,46,48.83725838194487,2.7528775529524876,Château,Jossigny Château,48.8373068,2.7528609,StopPoint:node:4326858740,Route:relation:3957778,Line:relation:6147733
C01713,15547,46,48.83771729447806,2.7529979930819213,Château,Jossigny Château,48.837688799999995,2.7530115,StopPoint:node:4590685694,Route:relation:6147732,Line:relation:6147733
C01713,15697,46,48.838911874765415,2.6543522159153237,Gare de Torcy,Torcy RER,48.8393066,2.6542586,StopPoint:node:3900948965,Route:relation:3957778,Line:relation:6147733
C01713,15737,46,48.83576512137093,2.6739092232548636,Lavoir,Collégien - Lavoir,48.8357859,2.6738839999999997,StopPoint:node:2094214108,Route:relation:6147732,Line:relation:6147733
C01713,15738,46,48.835424489389396,2.6743200571624683,Lavoir,Collégien - Lavoir,48.835409899999995,2.6743775,StopPoint:node:2094214105,Route:relation:3957778,Line:relation:6147733
C01713,15767,46,48.834974421245086,2.7203696223481955,Georges Méliès,Georges Méliès,48.834942999999996,2.7207497999999997,StopPoint:node:5586765924,Route:relation:6147732,Line:relation:6147733
C01713,15768,46,48.834966287255526,2.72073749461503,Georges Méliès,Georges Méliès,48.8349865,2.7203841,StopPoint:node:5586765925,Route:relation:3957778,Line:relation:6147733
C01713,16924,46,48.83638508991883,2.708523096555323,Gare de Bussy-Saint-Georges,Gare de Bussy-Saint-Georges,48.8363193,2.7084571,StopPoint:node:6477004896,Route:relation:3957778,Line:relation:6147733
C01713,18066,46,48.83401130026067,2.701425141364988,Léonard de Vinci,ZA Léonard de Vinci,48.8340043,2.7014196999999998,StopPoint:node:4324432148,Route:relation:6147732,Line:relation:6147733
C01713,19825,46,48.83421119100809,2.7022413822714766,Léonard de Vinci,ZA Léonard de Vinci,48.834204799999995,2.7022477,StopPoint:node:5586765923,Route:relation:3957778,Line:relation:6147733
C01713,22486,46,48.85113393851662,2.7703366984562745,Centre Hospitalier,Centre Hospitalier,48.8511935,2.7704082999999997,StopPoint:node:5225418004,Route:relation:6147732,Line:relation:6147733
C01713,22487,46,48.850420771924064,2.768936230083416,Centre Hospitalier,Centre Hospitalier,48.850358,2.76888,StopPoint:node:4610182108,Route:relation:3957778,Line:relation:6147733
C01713,22488,46,48.85319850588949,2.7730123191246627,Centre Urbain (accès RER),Centre Urbain (accès RER),48.853245699999995,2.7730737999999997,StopPoint:node:5225627092,Route:relation:6147732,Line:relation:6147733
C01713,22489,46,48.85323370242246,2.772603324916784,Centre Urbain (accès RER),Centre Urbain (accès RER),48.8531592,2.7725351,StopPoint:node:4323538095,Route:relation:3957778,Line:relation:6147733
C01713,35861,46,48.83451857923603,2.7177427964914975,Bruxelles,Bruxelles,48.834506499999996,2.7176514,StopPoint:node:4590685699,Route:relation:6147732,Line:relation:6147733
C01713,35862,46,48.834397991058715,2.716190411897018,Bruxelles,Bruxelles,48.834428499999994,2.7163337999999997,StopPoint:node:4326511218,Route:relation:3957778,Line:relation:6147733
C01713,35863,46,48.83270877609561,2.698449229109171,Butte de Vaux,Butte de Vaux,48.8326248,2.6984659,StopPoint:node:5586765922,Route:relation:6147732,Line:relation:6147733
C01713,35864,46,48.83234025529377,2.698533096525117,Butte de Vaux,Butte de Vaux,48.8324012,2.6985064,StopPoint:node:4324223100,Route:relation:3957778,Line:relation:6147733
C01713,35865,46,48.84088314762169,2.6676506405739646,Cèdre,Cèdre,48.840878499999995,2.6677481,StopPoint:node:2995657992,Route:relation:6147732,Line:relation:6147733
C01713,35866,46,48.840973004473085,2.6676228178220955,Cèdre,Cèdre,48.840995,2.6677401,StopPoint:node:2995657993,Route:relation:3957778,Line:relation:6147733
C01713,419940,46,48.837864174901185,2.7823161748268594,Jussieu,Jussieu,48.837868,2.782346,StopPoint:node:6682078597,Route:relation:3957778,Line:relation:6147733
C01713,419940,46,48.837864174901185,2.7823161748268594,Jussieu,Jussieu,48.837868,2.782346,StopPoint:node:6682078597,Route:relation:6147732,Line:relation:6147733
C01713,482437,46,48.83865335070046,2.655144139181229,Gare de Torcy,Torcy RER,48.8386505,2.6551449,StopPoint:node:3900938554,Route:relation:6147732,Line:relation:6147733
C01879,15255,02,48.86429756837928,2.718631039941011,Mermoz,Mermoz,48.8643755,2.7185441999999997,StopPoint:node:2992242959,Route:relation:6101988,Line:relation:6101989
C01879,15256,02,48.86441435034222,2.7185758852695137,Mermoz,Mermoz,48.8644162,2.7186757999999998,StopPoint:node:2992242958,Route:relation:5470995,Line:relation:6101989
C01879,15276,02,48.86481536760305,2.709509042599383,Orme Bossu,Orme Bossu,48.864840199999996,2.7093453999999997,StopPoint:node:2992242963,Route:relation:6101988,Line:relation:6101989
C01879,15277,02,48.86494117147721,2.709467447719105,Orme Bossu,Orme Bossu,48.8649279,2.7094662,StopPoint:node:2992242962,Route:relation:5470995,Line:relation:6101989
C01879,15374,02,48.875304661813196,2.703506186048347,Saint Joseph,Saint-Joseph,48.875318799999995,2.7034141,StopPoint:node:2131074444,Route:relation:6101988,Line:relation:6101989
C01879,15375,02,48.875394895592706,2.703628377198485,Saint Joseph,Saint-Joseph,48.8753868,2.7036757,StopPoint:node:2131074446,Route:relation:5470995,Line:relation:6101989
C01879,15384,02,48.852942097483286,2.7398293488983687,Terres Fortes,Terres Fortes,48.8529868,2.7397913999999997,StopPoint:node:2299891685,Route:relation:6101988,Line:relation:6101989
C01879,15395,02,48.86530825214509,2.7162810115076312,Thuyas,Thuyas,48.865303499999996,2.7163005,StopPoint:node:2992242961,Route:relation:6101988,Line:relation:6101989
C01879,15396,02,48.86534461211102,2.71644438823686,Thuyas,Thuyas,48.8653534,2.7164113999999997,StopPoint:node:2992242960,Route:relation:5470995,Line:relation:6101989
C01879,15405,02,48.87856409874962,2.7014696951315122,Verdun,Verdun,48.8785719,2.7015127,StopPoint:node:2991484604,Route:relation:6101988,Line:relation:6101989
C01879,15406,02,48.87908609855089,2.701630321021339,Verdun,Verdun,48.8790446,2.701679,StopPoint:node:2991484603,Route:relation:5470995,Line:relation:6101989
C01879,15434,02,48.856699523114884,2.73902010777956,Mairie,Chanteloup Mairie,48.856764899999995,2.7389522,StopPoint:node:603019627,Route:relation:5470995,Line:relation:6101989
C01879,15435,02,48.85698691762992,2.7388414908891194,Mairie,Chanteloup Mairie,48.856977199999996,2.7388806,StopPoint:node:603019611,Route:relation:6101988,Line:relation:6101989
C01879,15516,02,48.85567768083532,2.740578896127071,La Ferme,La Ferme,48.8556768,2.7404474999999997,StopPoint:node:4590685703,Route:relation:5470995,Line:relation:6101989
C01879,15517,02,48.855703151472945,2.73988370598058,La Ferme,La Ferme,48.855720899999994,2.7399435999999997,StopPoint:node:4590685702,Route:relation:6101988,Line:relation:6101989
C01879,15651,02,48.85505998255583,2.7636550525271417,Eugène Isabey,Eugène Isabey,48.8550861,2.7636607,StopPoint:node:4590685708,Route:relation:6101988,Line:relation:6101989
C01879,15652,02,48.85564365003733,2.7632026591379253,Eugène Isabey,Eugène Isabey,48.8556755,2.7631934,StopPoint:node:4590685709,Route:relation:5470995,Line:relation:6101989
C01879,15664,02,48.86238933610249,2.721762719694022,Fort du Bois,Fort du Bois,48.862394099999996,2.7218305999999997,StopPoint:node:2992242957,Route:relation:6101988,Line:relation:6101989
C01879,15665,02,48.862416695575256,2.7219261390956606,Fort du Bois,Fort du Bois,48.8624163,2.7219748999999998,StopPoint:node:2992242956,Route:relation:5470995,Line:relation:6101989
C01879,15672,02,48.86684894380102,2.7062806384626055,Georges Seurat,Georges Seurat,48.866814999999995,2.7063403999999998,StopPoint:node:4839942373,Route:relation:5470995,Line:relation:6101989
C01879,15687,02,48.87619812970537,2.7011560383293856,Lagny Thorigny / Foch,Foch,48.876372599999996,2.7010376,StopPoint:node:2991484607,Route:relation:6101988,Line:relation:6101989
C01879,15728,02,48.85105608284295,2.73689522985292,La Petite Jonchère,La Petite Jonchère,48.851042,2.7368867999999997,StopPoint:node:2299891683,Route:relation:5470995,Line:relation:6101989
C01879,15729,02,48.85088500215748,2.7368007015949485,La Petite Jonchère,La Petite Jonchère,48.8509065,2.7368196,StopPoint:node:2299891684,Route:relation:6101988,Line:relation:6101989
C01879,15739,02,48.855440275440586,2.743087744770838,Le Gasset,Le Gasset,48.8555272,2.7431609,StopPoint:node:4840026166,Route:relation:5470995,Line:relation:6101989
C01879,15740,02,48.855278427613484,2.7431021713560306,Le Gasset,Le Gasset,48.8553892,2.7431956,StopPoint:node:4325156220,Route:relation:6101988,Line:relation:6101989
C01879,16928,02,48.85485931523967,2.771465068817354,Fontaine Rouge,Fontaine Rouge (accès RER),48.854878799999994,2.7714958999999997,StopPoint:node:2187139784,Route:relation:6101988,Line:relation:6101989
C01879,23558,02,48.85920749974077,2.742646650855563,Le Cantou,Le Cantou,48.8589856,2.7429112,StopPoint:node:4610103959,Route:relation:5470995,Line:relation:6101989
C01879,23559,02,48.859062934940866,2.7423338848044336,Le Cantou,Le Cantou,48.8589451,2.7427181,StopPoint:node:4610103960,Route:relation:6101988,Line:relation:6101989
C01879,23560,02,48.86071405217126,2.7365329673273004,L'Orée du Bois,L'Orée du Bois,48.860611999999996,2.7362992,StopPoint:node:4326002128,Route:relation:5470995,Line:relation:6101989
C01879,23561,02,48.860452230378286,2.7360708734674866,L'Orée du Bois,L'Orée du Bois,48.860759099999996,2.7370921999999998,StopPoint:node:4610103967,Route:relation:6101988,Line:relation:6101989
C01879,412406,02,48.881945814773225,2.70522736628953,Gare de Lagny Thorigny,Gare de Lagny - Thorigny,48.8819003,2.7051164,StopPoint:node:4848176377,Route:relation:5470995,Line:relation:6101989
C01879,417795,02,48.88194524383408,2.7049955646352575,Gare de Lagny Thorigny,Gare de Lagny - Thorigny,48.8818747,2.7054663999999997,StopPoint:node:4848176374,Route:relation:6101988,Line:relation:6101989
C01879,419936,02,48.85499759451609,2.746360768815919,Les Rougeriots,Les Rougeriots,48.8551029,2.7464033999999997,StopPoint:node:4326772982,Route:relation:6101988,Line:relation:6101989
C01879,462418,02,48.859226714527566,2.76056949074715,Louis de Vion,Louis de Vion,48.8574215,2.7617369,StopPoint:node:5979563076,Route:relation:5470995,Line:relation:6101989
C01879,462421,02,48.85729552569124,2.761750467506183,Louis de Vion,Louis de Vion,48.857411199999994,2.7616017,StopPoint:node:5979563075,Route:relation:6101988,Line:relation:6101989
C01879,471093,02,48.87711636622521,2.7015325305763582,Foch / Paix Notre Dame,Foch - Paix Notre-Dame,48.8771437,2.7015058,StopPoint:node:2991484606,Route:relation:5470995,Line:relation:6101989
C02015,10492,35,48.84608116743217,2.8182685060001837,École des Girandoles,École des Girandoles,48.8461122,2.8182842999999997,StopPoint:node:2995793845,Route:relation:8092256,Line:relation:14396873
C02015,10493,35,48.84672708050604,2.8231989766907413,Place de la Mairie,Place de la Mairie,48.846736799999995,2.8231995999999997,StopPoint:node:2995793846,Route:relation:8092256,Line:relation:14396873
C02015,12606,35,48.85416288166114,2.8161415689431037,L'Orme Rond,L'Orme Rond,48.854167999999994,2.8161424,StopPoint:node:2311789993,Route:relation:8092256,Line:relation:14396873
C02015,15259,35,48.86702039331802,2.8086396948510837,Rue du Moulin à Vent,Rue du Moulin à Vent,48.8670543,2.8086135999999997,StopPoint:node:2274924817,Route:relation:8092256,Line:relation:14396873
C02015,15260,35,48.866841684251376,2.8093628246844613,Rue du Moulin à Vent,Rue du Moulin à Vent,48.8668762,2.8093041,StopPoint:node:2274924811,Route:relation:8092256,Line:relation:14396873
C02015,15431,35,48.87380181133924,2.8034613571191587,Circulaire - Magny,Circulaire-Magny,48.873812799999996,2.803519,StopPoint:node:3289023065,Route:relation:8092256,Line:relation:14396873
C02015,15432,35,48.87363991419707,2.8034483346514847,Circulaire - Magny,Circulaire-Magny,48.8736797,2.8034101,StopPoint:node:3738175373,Route:relation:8092256,Line:relation:14396873
C02015,15559,35,48.85209737973882,2.8180703641913345,Les Genêts,Les Genêts,48.8521034,2.8180508,StopPoint:node:5002850361,Route:relation:8092256,Line:relation:14396873
C02015,15560,35,48.85196291619246,2.818357014860818,Les Genêts,Les Genêts,48.8520003,2.8183266,StopPoint:node:5002850362,Route:relation:8092256,Line:relation:14396873
C02015,15576,35,48.85323770970563,2.8168807459256655,L'Orme Rond,L'Orme Rond,48.8533299,2.8169022,StopPoint:node:2311789978,Route:relation:8092256,Line:relation:14396873
C02015,15586,35,48.87082125619107,2.7957974388715856,Santa Fé,Santa Fe,48.870810899999995,2.7957788,StopPoint:node:6554999490,Route:relation:8092256,Line:relation:14396873
C02015,15587,35,48.87065603945577,2.79384862800287,Séquoia Lodge,Sequoia Lodge,48.8706487,2.7938682,StopPoint:node:2274924818,Route:relation:8092256,Line:relation:14396873
C02015,15667,35,48.84736387271583,2.816083797019458,Rue de Bellesmes,Rue de Bellesmes,48.8473682,2.8161141,StopPoint:node:2995793844,Route:relation:8092256,Line:relation:14396873
C02016,10535,47,48.867499804976475,2.783855410934453,Chessy Sud - Quai A (dépose),Gare de Marne-la-Vallée - Chessy Sud,48.867513599999995,2.7837955,StopPoint:node:9543844836,Route:relation:8092296,Line:relation:14396872
C02016,15227,47,48.861929818579625,2.787081639478855,Commissariat,Commisariat de Chessy,48.8618776,2.7869463999999997,StopPoint:node:1071425329,Route:relation:8092296,Line:relation:14396872
C02016,15232,47,48.860660036129524,2.7861054711959548,Commissariat,Commisariat de Chessy,48.860608199999994,2.7860986999999997,StopPoint:node:1071425943,Route:relation:8092297,Line:relation:14396872
C02016,15248,47,48.85055308301438,2.7869237138378957,Les Marmousets,Les Marmousets,48.850612299999995,2.7869261,StopPoint:node:1578564147,Route:relation:8092296,Line:relation:14396872
C02016,15249,47,48.85025606378839,2.786788655873719,Les Marmousets,Les Marmousets,48.850267699999996,2.7867542,StopPoint:node:1578564146,Route:relation:8092297,Line:relation:14396872
C02016,15250,47,48.84139273874381,2.784059053372761,Les Pléïades,Les Pléïades,48.841408,2.7841098,StopPoint:node:2311920979,Route:relation:8092296,Line:relation:14396872
C02016,15251,47,48.841159281703504,2.784264393613361,Les Pléïades,Les Pléïades,48.841183699999995,2.784216,StopPoint:node:2311920977,Route:relation:8092297,Line:relation:14396872
C02016,15316,47,48.84559010898371,2.7826654331382397,Place Thomas le Pileur,Place Thomas le Pileur,48.8455594,2.7827172,StopPoint:node:1578564064,Route:relation:8092296,Line:relation:14396872
C02016,15317,47,48.84550017634047,2.782665808175457,Place Thomas le Pileur,Place Thomas le Pileur,48.8455837,2.7825591999999997,StopPoint:node:1578564066,Route:relation:8092297,Line:relation:14396872
C02016,15579,47,48.84156416385101,2.789412956985741,Pressoir-Parc d'Entreprises,Pressoir,48.8416092,2.7895015,StopPoint:node:1937468689,Route:relation:8092296,Line:relation:14396872
C02016,15580,47,48.84157363652954,2.7896854181682165,Pressoir-Parc d'Entreprises,Pressoir,48.841542999999994,2.7896121,StopPoint:node:1937468724,Route:relation:8092297,Line:relation:14396872
C02016,15640,47,48.83940229923617,2.792582553287895,Le Prieuré - Parc d'Entreprises,Prieuré - Parc d'Entreprises,48.8394816,2.7924781999999997,StopPoint:node:4326515852,Route:relation:8092297,Line:relation:14396872
C02016,15641,47,48.83956417892803,2.792581909097957,Le Prieuré - Parc d'Entreprises,Prieuré - Parc d'Entreprises,48.8395127,2.7926816999999997,StopPoint:node:5225654058,Route:relation:8092296,Line:relation:14396872
C02016,15642,47,48.85270117333674,2.7861926522867297,Garonne,Garonne,48.852719199999996,2.7862065,StopPoint:node:2625807505,Route:relation:8092296,Line:relation:14396872
C02016,21783,47,48.85231487908261,2.786425909591751,Garonne,Garonne,48.852329999999995,2.7864112,StopPoint:node:2624788797,Route:relation:8092297,Line:relation:14396872
C02016,23425,47,48.837489755524466,2.7943476473776556,CCI,CCI,48.8374411,2.7942717,StopPoint:node:6211510306,Route:relation:8092296,Line:relation:14396872
C02016,23426,47,48.837678146733495,2.794074425046322,CCI,CCI,48.837678999999994,2.794108,StopPoint:node:6555996270,Route:relation:8092297,Line:relation:14396872
C02016,41655,47,48.83182503460126,2.800322992657206,Villages Nature,Villages Nature (RD231),48.8317921,2.8003896999999998,StopPoint:node:6555996276,Route:relation:8092297,Line:relation:14396872
C02016,422827,47,48.859023307231745,2.786125820015759,Lac,Lac / Hipark,48.858614599999996,2.7859525,StopPoint:node:5979563072,Route:relation:8092296,Line:relation:14396872
C02016,426632,47,48.83135700387192,2.8055557472527997,Villages Nature,Villages Nature,48.8313171,2.8056517999999997,StopPoint:node:6683466565,Route:relation:8092296,Line:relation:14396872
C02016,426632,47,48.83135700387192,2.8055557472527997,Villages Nature,Villages Nature,48.8313171,2.8056517999999997,StopPoint:node:6683466565,Route:relation:8092297,Line:relation:14396872
C02016,462422,47,48.85778156832234,2.7857492991695603,Lac,Lac / Hipark,48.857828,2.7856997999999997,StopPoint:node:5979563073,Route:relation:8092297,Line:relation:14396872
C02016,477690,47,48.86560947873776,2.7828818031269664,Chessy Sud - Quai K,Gare de Marne-la-Vallée - Chessy Sud,48.8658401,2.7829653999999997,StopPoint:node:9543844847,Route:relation:8092297,Line:relation:14396872
C02298,15285,27,48.8278542352735,2.7064594696088795,Parc d'Activités,Parc d'Activités,48.8278817,2.7064635,StopPoint:node:1607447702,Route:relation:8092342,Line:relation:12399533
C02298,15285,27,48.8278542352735,2.7064594696088795,Parc d'Activités,Parc d'Activités,48.8278817,2.7064635,StopPoint:node:1607447702,Route:relation:9885375,Line:relation:12399533
C02298,15286,27,48.8278269207326,2.706323409142276,Parc d'Activités,Parc d'Activités,48.827309199999995,2.7063764999999997,StopPoint:node:1607447693,Route:relation:8092342,Line:relation:12399533
C02298,15286,27,48.8278269207326,2.706323409142276,Parc d'Activités,Parc d'Activités,48.827309199999995,2.7063764999999997,StopPoint:node:1607447693,Route:relation:9885375,Line:relation:12399533
C02298,15311,27,48.842499790602155,2.704523949256699,Place du Clos,Place du Clos,48.8425373,2.7047507,StopPoint:node:1494067866,Route:relation:8092342,Line:relation:12399533
C02298,15371,27,48.83642169363416,2.7087817416129583,Gare de Bussy-Saint-Georges,Gare de Bussy-Saint-Georges,48.8364088,2.7092046,StopPoint:node:6477009264,Route:relation:8092342,Line:relation:12399533
C02298,15371,27,48.83642169363416,2.7087817416129583,Gare de Bussy-Saint-Georges,Gare de Bussy-Saint-Georges,48.8364088,2.7092046,StopPoint:node:6477009264,Route:relation:8092342,Line:relation:12399533
C02298,15371,27,48.83642169363416,2.7087817416129583,Gare de Bussy-Saint-Georges,Gare de Bussy-Saint-Georges,48.8364088,2.7092046,StopPoint:node:6477009264,Route:relation:9885375,Line:relation:12399533
C02298,15371,27,48.83642169363416,2.7087817416129583,Gare de Bussy-Saint-Georges,Gare de Bussy-Saint-Georges,48.8364088,2.7092046,StopPoint:node:6477009264,Route:relation:9885375,Line:relation:12399533
C02298,15414,27,48.82824999321867,2.6992378257288503,Moulin à Vent,Moulin à Vent,48.8282708,2.6992381,StopPoint:node:1607447706,Route:relation:8092342,Line:relation:12399533
C02298,15414,27,48.82824999321867,2.6992378257288503,Moulin à Vent,Moulin à Vent,48.8282708,2.6992381,StopPoint:node:1607447706,Route:relation:9885375,Line:relation:12399533
C02298,15442,27,48.823506262681995,2.7084588915658427,Château,Ferrières Château,48.8234165,2.7083947999999998,StopPoint:node:1607447555,Route:relation:8092342,Line:relation:12399533
C02298,15442,27,48.823506262681995,2.7084588915658427,Château,Ferrières Château,48.8234165,2.7083947999999998,StopPoint:node:1607447555,Route:relation:9885375,Line:relation:12399533
C02298,15445,27,48.82518075406659,2.7054802080798277,Paris,Paris,48.825188,2.705505,StopPoint:node:6683229784,Route:relation:8092342,Line:relation:12399533
C02298,15445,27,48.82518075406659,2.7054802080798277,Paris,Paris,48.825188,2.705505,StopPoint:node:6683229784,Route:relation:9885375,Line:relation:12399533
C02298,15522,27,48.822226575248216,2.7037399197071323,Place,Place,48.822266,2.7037458,StopPoint:node:2322385666,Route:relation:8092342,Line:relation:12399533
C02298,15522,27,48.822226575248216,2.7037399197071323,Place,Place,48.822266,2.7037458,StopPoint:node:2322385666,Route:relation:9885375,Line:relation:12399533
C02298,15706,27,48.827042027983644,2.701696614791833,Marie Hélène,Marie Hélène,48.8270122,2.7017894,StopPoint:node:4325197576,Route:relation:8092342,Line:relation:12399533
C02298,15706,27,48.827042027983644,2.701696614791833,Marie Hélène,Marie Hélène,48.8270122,2.7017894,StopPoint:node:4325197576,Route:relation:9885375,Line:relation:12399533
C02298,15766,27,48.8242022821916,2.706221241181268,Roseraie,Roseraie,48.824269699999995,2.7062606,StopPoint:node:2322893955,Route:relation:8092342,Line:relation:12399533
C02298,15766,27,48.8242022821916,2.706221241181268,Roseraie,Roseraie,48.824269699999995,2.7062606,StopPoint:node:2322893955,Route:relation:9885375,Line:relation:12399533
C02298,15771,27,48.826483856368014,2.705091456632118,Centre Commercial,Centre Commercial,48.826515799999996,2.7050402,StopPoint:node:2322893845,Route:relation:8092342,Line:relation:12399533
C02298,15771,27,48.826483856368014,2.705091456632118,Centre Commercial,Centre Commercial,48.826515799999996,2.7050402,StopPoint:node:2322893845,Route:relation:9885375,Line:relation:12399533
C02298,21821,27,48.8266607609804,2.7112472022740945,Violaine,Violaine,48.8267305,2.7113625999999997,StopPoint:node:4323512731,Route:relation:9885375,Line:relation:12399533
C02298,21822,27,48.82671279168293,2.7179757521712617,Parc du Bel-Air,Parc du Bel-Air,48.8267135,2.7179151,StopPoint:node:4323493712,Route:relation:9885375,Line:relation:12399533
C02298,21823,27,48.82452668817653,2.717687924994832,Cordier,Cordier,48.8245462,2.7177371,StopPoint:node:4321161384,Route:relation:9885375,Line:relation:12399533
C02298,23562,27,48.83162048145291,2.7093125922015857,Mendès France,Mendès France,48.831567799999995,2.7094340999999997,StopPoint:node:4318076982,Route:relation:8092342,Line:relation:12399533
C02298,23562,27,48.83162048145291,2.7093125922015857,Mendès France,Mendès France,48.831567799999995,2.7094340999999997,StopPoint:node:4318076982,Route:relation:9885375,Line:relation:12399533
C02298,23563,27,48.831738023757936,2.709570763240394,Mendès France,Mendès France,48.8317972,2.7095306,StopPoint:node:6683232785,Route:relation:8092342,Line:relation:12399533
C02298,23563,27,48.831738023757936,2.709570763240394,Mendès France,Mendès France,48.8317972,2.7095306,StopPoint:node:6683232785,Route:relation:9885375,Line:relation:12399533
C02298,41548,27,48.824089565757966,2.7230567455512187,Froëlicher,Froëlicher,48.824146899999995,2.7230350999999997,StopPoint:node:4320168379,Route:relation:9885375,Line:relation:12399533
C02298,41654,27,48.82211745617226,2.714336847380925,Impératrice Eugénie,Impératrice Eugénie,48.821562,2.7142630999999997,StopPoint:node:4326780837,Route:relation:9885375,Line:relation:12399533
