network,osm:ref:FR:STIF:ExternalCode_Line,stop_id,line_id,osm:ref:FR:STIF,lat,destination,code,name,lon,route_id
Les Courriers de l'Île-de-France,014014099:Gbus,StopPoint:Node:252750239,Line:Relation:7741077,419693,49.0266442,Goussainville RER,G'bus,École Pasteur,2.4732585,Route:Relation:107353
Les Courriers de l'Île-de-France,014014099:Gbus,StopPoint:Node:837540004,Line:Relation:7741077,415750,49.0306092,Goussainville RER,G'bus,Hélène Boucher,2.4490165999999998,Route:Relation:107353
Les Courriers de l'Île-de-France,014014099:Gbus,StopPoint:Node:837539998,Line:Relation:7741077,38670,49.032275999999996,Goussainville RER,G'bus,Michel Simon,2.4479287,Route:Relation:107353
Les Courriers de l'Île-de-France,014014099:Gbus,StopPoint:Node:837540002,Line:Relation:7741077,38698,49.033831299999996,Goussainville RER,G'bus,Pablo Picasso,2.4490819,Route:Relation:107353
Les Courriers de l'Île-de-France,014014099:Gbus,StopPoint:Node:837539990,Line:Relation:7741077,38634,49.0307464,Goussainville RER,G'bus,Madeleine Renaud,2.4492716,Route:Relation:107353
Les Courriers de l'Île-de-France,014014099:Gbus,StopPoint:Node:5320764711,Line:Relation:7741077,38442,49.030343599999995,Goussainville RER,G'bus,Lycée Romain Rolland,2.4557621999999997,Route:Relation:107353
Les Courriers de l'Île-de-France,014014099:Gbus,StopPoint:Node:837350647,Line:Relation:7741077,38102,49.033006099999994,Goussainville RER,G'bus,Avenue des Tilleuls,2.458301,Route:Relation:107353
Les Courriers de l'Île-de-France,014014099:Gbus,StopPoint:Node:837539994,Line:Relation:7741077,38477,49.0326111,Goussainville RER,G'bus,Collège Robespierre,2.4525402,Route:Relation:107353
Les Courriers de l'Île-de-France,014014099:Gbus,StopPoint:Node:837540001,Line:Relation:7741077,38691,49.034550499999995,Goussainville RER,G'bus,Georges Pitard,2.4547018,Route:Relation:107353
Les Courriers de l'Île-de-France,014014099:Gbus,StopPoint:Node:837539997,Line:Relation:7741077,38648,49.0361051,Goussainville RER,G'bus,Médiathèque,2.4614898999999997,Route:Relation:107353
Les Courriers de l'Île-de-France,014014099:Gbus,StopPoint:Node:837350700,Line:Relation:7741077,37998,49.0368548,Goussainville RER,G'bus,Henri Dunant,2.4640310999999997,Route:Relation:107353
Les Courriers de l'Île-de-France,014014099:Gbus,StopPoint:Node:837350652,Line:Relation:7741077,37988,49.0387626,Goussainville RER,G'bus,Descartes,2.4612241,Route:Relation:107353
Les Courriers de l'Île-de-France,014014099:Gbus,StopPoint:Node:345242715,Line:Relation:7741077,38457,49.0416155,Goussainville RER,G'bus,Cachin Blatreux,2.4636214,Route:Relation:107353
Les Courriers de l'Île-de-France,014014099:Gbus,StopPoint:Node:837209781,Line:Relation:7741077,38461,49.0408395,Goussainville RER,G'bus,Camélinat,2.4646936,Route:Relation:107353
Les Courriers de l'Île-de-France,014014099:Gbus,StopPoint:Node:837540000,Line:Relation:7741077,419717,49.0383758,Goussainville RER,G'bus,École Gabriel Péri,2.4681652,Route:Relation:107353
Les Courriers de l'Île-de-France,014014099:Gbus,StopPoint:Node:837209799,Line:Relation:7741077,419511,49.0365709,Goussainville RER,G'bus,Résidence Ambroise Croizat,2.4781942999999997,Route:Relation:107353
Les Courriers de l'Île-de-France,014014099:Gbus,StopPoint:Node:252857718,Line:Relation:7741077,38013,49.0320695,Goussainville RER,G'bus,Mairie,2.474189,Route:Relation:107353
Les Courriers de l'Île-de-France,014014099:Gbus,StopPoint:Node:252750230,Line:Relation:7741077,38515,49.0327237,Goussainville RER,G'bus,École Jean Jaurès,2.482159,Route:Relation:107353
Les Courriers de l'Île-de-France,014014099:Gbus,StopPoint:Node:252750243,Line:Relation:7741077,38501,49.030433599999995,Goussainville RER,G'bus,Les Côteaux,2.4796158,Route:Relation:107353
Les Courriers de l'Île-de-France,014014099:Gbus,StopPoint:Node:372739907,Line:Relation:7741077,38837,49.025794399999995,Goussainville RER,G'bus,ZI du Dessous de l'Orme,2.4553849,Route:Relation:107353
Les Courriers de l'Île-de-France,014014099:Gbus,StopPoint:Node:5326885599,Line:Relation:7741077,38841,49.0229741,Goussainville RER,G'bus,ZI du Pied de Fer,2.4575199999999997,Route:Relation:107353
Les Courriers de l'Île-de-France,014014099:Gbus,StopPoint:Node:5320764709,Line:Relation:7741077,37968,49.0229784,Goussainville RER,G'bus,Marcel Cerdan,2.4596807,Route:Relation:107353
Les Courriers de l'Île-de-France,014014099:Gbus,StopPoint:Node:372723106,Line:Relation:7741077,38478,49.021687,Goussainville RER,G'bus,Carrefour de l'Europe,2.4653799,Route:Relation:107353
Les Courriers de l'Île-de-France,014014099:Gbus,StopPoint:Node:5320764715,Line:Relation:7741077,38508,49.0279996,Goussainville RER,G'bus,Collège Montaigne,2.4538161,Route:Relation:107353
Les Courriers de l'Île-de-France,014014099:Gbus,StopPoint:Node:5326079506,Line:Relation:7741077,423960,49.029931999999995,Goussainville RER,G'bus,École Jacques Prévert,2.451904,Route:Relation:107353
Les Courriers de l'Île-de-France,014014099:Gbus,StopPoint:Node:5326079505,Line:Relation:7741077,38519,49.030094,Goussainville RER,G'bus,École Jacques Prévert,2.4518079999999998,Route:Relation:107353
Les Courriers de l'Île-de-France,014014030:30B,StopPoint:Node:5320764709,Line:Relation:7097513,37968,49.0229784,Gare de Goussainville,30B,Marcel Cerdan,2.4596807,Route:Relation:107355
Les Courriers de l'Île-de-France,014014030:30B,StopPoint:Node:5320764711,Line:Relation:7097513,38442,49.030343599999995,Gare de Goussainville,30B,Lycée Romain Rolland,2.4557621999999997,Route:Relation:107355
Les Courriers de l'Île-de-France,014014030:30B,StopPoint:Node:5320764716,Line:Relation:7097513,38484,49.0380689,Gare de Goussainville,30B,Chapellerie,2.45539,Route:Relation:107355
Les Courriers de l'Île-de-France,014014030:30B,StopPoint:Node:5320764715,Line:Relation:7097513,38508,49.0279996,Gare de Goussainville,30B,Collège Montaigne,2.4538161,Route:Relation:107355
Les Courriers de l'Île-de-France,014014030:30B,StopPoint:Node:837350647,Line:Relation:7097513,38102,49.033006099999994,Gare de Goussainville,30B,Avenue des Tilleuls,2.458301,Route:Relation:107355
Les Courriers de l'Île-de-France,,StopPoint:Node:837350629,Line:Relation:3253656,38460,49.0153166,Aulnay-Sous-Bois - Parinor Louis Armand,32A,Calvaire,2.4699894,Route:Relation:107357
Les Courriers de l'Île-de-France,,StopPoint:Node:252857710,Line:Relation:3253656,38042,49.0358346,Aulnay-Sous-Bois - Parinor Louis Armand,32A,Les Montagnettes,2.4703276,Route:Relation:107357
Les Courriers de l'Île-de-France,,StopPoint:Node:252857713,Line:Relation:3253656,419734,49.0342406,Aulnay-Sous-Bois - Parinor Louis Armand,32A,La Charmeuse,2.4720256,Route:Relation:107357
Les Courriers de l'Île-de-France,,StopPoint:Node:837350590,Line:Relation:3253656,37989,49.038393899999996,Aulnay-Sous-Bois - Parinor Louis Armand,32A,École Gabriel Péri,2.467244,Route:Relation:107357
Les Courriers de l'Île-de-France,,StopPoint:Node:837350703,Line:Relation:3253656,37997,49.0280553,Aulnay-Sous-Bois - Parinor Louis Armand,32A,Marché,2.4615961,Route:Relation:107357
Les Courriers de l'Île-de-France,,StopPoint:Node:837569743,Line:Relation:3253656,38097,49.0106227,Aulnay-Sous-Bois - Parinor Louis Armand,32A,La Talmouse,2.4883048999999997,Route:Relation:107357
Les Courriers de l'Île-de-France,,StopPoint:Node:504477786,Line:Relation:3253656,38763,49.025653399999996,Aulnay-Sous-Bois - Parinor Louis Armand,32A,Sécurité Sociale,2.4628593,Route:Relation:107357
Les Courriers de l'Île-de-France,,StopPoint:Node:372723106,Line:Relation:3253656,38478,49.021687,Aulnay-Sous-Bois - Parinor Louis Armand,32A,Carrefour de l'Europe,2.4653799,Route:Relation:107357
Les Courriers de l'Île-de-France,,StopPoint:Node:5320764716,Line:Relation:3253656,38484,49.0380689,Aulnay-Sous-Bois - Parinor Louis Armand,32A,Chapellerie,2.45539,Route:Relation:107357
Les Courriers de l'Île-de-France,,StopPoint:Node:5319891214,Line:Relation:3253656,39016,48.95597,Aulnay-Sous-Bois - Parinor Louis Armand,32A,O'Parinor – Louis Armand,2.480383,Route:Relation:107357
Les Courriers de l'Île-de-France,,StopPoint:Node:5319886730,Line:Relation:3253656,38732,49.003882,Aulnay-Sous-Bois - Parinor Louis Armand,32A,Village,2.516425,Route:Relation:107357
Les Courriers de l'Île-de-France,,StopPoint:Node:837350647,Line:Relation:3253656,38102,49.033006099999994,Aulnay-Sous-Bois - Parinor Louis Armand,32A,Avenue des Tilleuls,2.458301,Route:Relation:107357
Les Courriers de l'Île-de-France,,StopPoint:Node:4605491857,Line:Relation:3253656,38016,49.005371,Aulnay-Sous-Bois - Parinor Louis Armand,32A,Roissy Parc,2.506364,Route:Relation:107357
Les Courriers de l'Île-de-France,,StopPoint:Node:370631943,Line:Relation:3253656,38089,49.0298984,Aulnay-Sous-Bois - Parinor Louis Armand,32A,Centre de Secours,2.4601488,Route:Relation:107357
Keolis CIF,014014104:R104,StopPoint:Node:504477783,Line:Relation:6885970,419475,49.0255521,Institut Saint-Dominique (Mortefontaine),R104,Sécurité Sociale,2.4632461,Route:Relation:107358
Keolis CIF,014014104:R104,StopPoint:Node:504477783,Line:Relation:6885970,38763,49.0255521,Institut Saint-Dominique (Mortefontaine),R104,Sécurité Sociale,2.4632461,Route:Relation:107358
Keolis CIF,014014104:R104,StopPoint:Node:837350590,Line:Relation:6885970,37989,49.038393899999996,Institut Saint-Dominique (Mortefontaine),R104,École Gabriel Péri,2.467244,Route:Relation:107358
Keolis CIF,014014104:R104,StopPoint:Node:5320764716,Line:Relation:6885970,38484,49.0380689,Institut Saint-Dominique (Mortefontaine),R104,Chapellerie,2.45539,Route:Relation:107358
Keolis CIF,014014104:R104,StopPoint:Node:1938481314,Line:Relation:6885970,38681,49.0992348,Institut Saint-Dominique (Mortefontaine),R104,Petit Argenteuil,2.5328695,Route:Relation:107358
Keolis CIF,014014104:R104,StopPoint:Node:1637896007,Line:Relation:6885970,38664,49.098257499999995,Institut Saint-Dominique (Mortefontaine),R104,Monument,2.5387347,Route:Relation:107358
CIF,014014302:R8,StopPoint:Node:252857718,Line:Relation:7921056,38013,49.0320695,,R8,Mairie,2.474189,Route:Relation:111252
Les Courriers de l'Île-de-France,014014030:30D,StopPoint:Node:5320764715,Line:Relation:7097520,38508,49.0279996,Gare de Goussainville,30D,Collège Montaigne,2.4538161,Route:Relation:111253
Les Courriers de l'Île-de-France,014014030:30D,StopPoint:Node:5326079506,Line:Relation:7097520,423960,49.029931999999995,Gare de Goussainville,30D,École Jacques Prévert,2.451904,Route:Relation:111253
Les Courriers de l'Île-de-France,014014030:30D,StopPoint:Node:5326079505,Line:Relation:7097520,38519,49.030094,Gare de Goussainville,30D,École Jacques Prévert,2.4518079999999998,Route:Relation:111253
Les Courriers de l'Île-de-France,014014030:30D,StopPoint:Node:5320764709,Line:Relation:7097520,37968,49.0229784,Gare de Goussainville,30D,Marcel Cerdan,2.4596807,Route:Relation:111253
Les Courriers de l'Île-de-France,014014030:30D,StopPoint:Node:837540002,Line:Relation:7097520,38698,49.033831299999996,Gare de Goussainville,30D,Pablo Picasso,2.4490819,Route:Relation:111253
Les Courriers de l'Île-de-France,014014030:30D,StopPoint:Node:837539998,Line:Relation:7097520,38670,49.032275999999996,Gare de Goussainville,30D,Michel Simon,2.4479287,Route:Relation:111253
Les Courriers de l'Île-de-France,014014030:30D,StopPoint:Node:837539990,Line:Relation:7097520,38634,49.0307464,Gare de Goussainville,30D,Madeleine Renaud,2.4492716,Route:Relation:111253
Les Courriers de l'Île-de-France,014014030:30D,StopPoint:Node:837540004,Line:Relation:7097520,415750,49.0306092,Gare de Goussainville,30D,Hélène Boucher,2.4490165999999998,Route:Relation:111253
Les Courriers de l'Île-de-France,014014030:30D,StopPoint:Node:5320764711,Line:Relation:7097520,38442,49.030343599999995,Gare de Goussainville,30D,Lycée Romain Rolland,2.4557621999999997,Route:Relation:111253
Les Courriers de l'Île-de-France,014014030:30D,StopPoint:Node:372739907,Line:Relation:7097520,38837,49.025794399999995,Gare de Goussainville,30D,ZI du Dessous de l'Orme,2.4553849,Route:Relation:111253
Les Courriers de l'Île-de-France,014014030:30D,StopPoint:Node:5326885599,Line:Relation:7097520,38841,49.0229741,Gare de Goussainville,30D,ZI du Pied de Fer,2.4575199999999997,Route:Relation:111253
Athis Cars,002002002:LIC,StopPoint:Node:4332121625,Line:Relation:6883314,21646,48.7338129,,Licorne,Poincaré,2.4214099,Route:Relation:115222
Athis Cars,002002002:LIC,StopPoint:Node:4324200432,Line:Relation:6883314,10291,48.7398545,,Licorne,Louis Jarrige,2.4201029999999997,Route:Relation:115222
Athis Cars,002002002:LIC,StopPoint:Node:4114476363,Line:Relation:6883314,35844,48.742937999999995,,Licorne,Parc en Seine,2.435089,Route:Relation:115222
Athis Cars,002002002:LIC,StopPoint:Node:4325184864,Line:Relation:6883314,21651,48.737162999999995,,Licorne,G. du Vair,2.4056796,Route:Relation:115222
Athis Cars,002002002:LIC,StopPoint:Node:4322931739,Line:Relation:6883314,21649,48.742383,,Licorne,Nikos Belloyanis,2.4176471999999998,Route:Relation:115222
Athis Cars,002002002:LIC,StopPoint:Node:5401678640,Line:Relation:6883314,9870,48.732591199999995,,Licorne,Place Jeanne d'Arc,2.4245845999999998,Route:Relation:115222
Athis Cars,002002002:LIC,StopPoint:Node:4405437257,Line:Relation:6883314,10297,48.7352002,,Licorne,Foyer Jean Rostand,2.404584,Route:Relation:115222
Athis Cars,002002002:CEN,StopPoint:Node:4324200432,Line:Relation:6883352,10291,48.7398545,Gare de Villeneuve-le-Roi,Centaure,Louis Jarrige,2.4201029999999997,Route:Relation:122930
Athis Cars,002002002:CEN,StopPoint:Node:5401678640,Line:Relation:6883352,9870,48.732591199999995,Gare de Villeneuve-le-Roi,Centaure,Place Jeanne d'Arc,2.4245845999999998,Route:Relation:122930
RATP,100100393:393,StopPoint:Node:928458342,Line:Relation:5557347,21791,48.767013999999996,Thiais - Carrefour de la Résistance,393,Europarc,2.4706824999999997,Route:Relation:126953
RATP,100100393:393,StopPoint:Node:2531407409,Line:Relation:5557347,21802,48.768792399999995,Thiais - Carrefour de la Résistance,393,Créteil Pointe du Lac,2.4635484,Route:Relation:126953
RATP,100100103:103,StopPoint:Node:2917717260,Line:Relation:4610190,27509,48.804349699999996,Rungis - Marché International,103,Mairie d'Alfortville,2.4201927,Route:Relation:127724
RATP,100100182:182,StopPoint:Node:5443966650,Line:Relation:6049045,415252,48.7687848,Villeneuve-Saint-Georges - Villeneuve Triage RER,182,8 Mai 1945,2.4087611,Route:Relation:149679
RATP,100100582:CHOISYB,StopPoint:Node:3889783176,Line:Relation:7136184,20465,48.7620387,Choisy-le-Roi RER,582,Quartier du Port,2.4135652,Route:Relation:150122
RATP,100100582:CHOISYB,StopPoint:Node:4331200570,Line:Relation:7136184,41589,48.755043199999996,Choisy-le-Roi RER,582,C.T.M.,2.4193959,Route:Relation:150122
RATP,100100582:CHOISYB,StopPoint:Node:3889783172,Line:Relation:7136184,25195,48.7586934,Choisy-le-Roi RER,582,Charles Jules Vaillant,2.4138330999999997,Route:Relation:150122
RATP,100100582:CHOISYB,StopPoint:Node:3889783175,Line:Relation:7136184,25196,48.755482199999996,Choisy-le-Roi RER,582,Crèche Jean Effel,2.4145575999999997,Route:Relation:150122
RATP,100100582:CHOISYB,StopPoint:Node:4323395903,Line:Relation:7136184,30203,48.7523196,Choisy-le-Roi RER,582,Église Saint-Martin,2.4159298,Route:Relation:150122
RATP,100100582:CHOISYB,StopPoint:Node:4602412631,Line:Relation:7136184,37796,48.753763299999996,Choisy-le-Roi RER,582,Robert Peary,2.4125731999999998,Route:Relation:150122
RATP,100100582:CHOISYB,StopPoint:Node:4320363654,Line:Relation:7136184,30202,48.754118899999995,Choisy-le-Roi RER,582,Rue du Four,2.407229,Route:Relation:150122
RATP,100100582:CHOISYB,StopPoint:Node:2271257412,Line:Relation:7136184,30220,48.7555668,Choisy-le-Roi RER,582,Spinoza,2.4049045,Route:Relation:150122
RATP,100100582:CHOISYB,StopPoint:Node:392653539,Line:Relation:7136184,30223,48.7603855,Choisy-le-Roi RER,582,Rue Yves Léger,2.4076342,Route:Relation:150122
RATP,100100582:CHOISYB,StopPoint:Node:437016462,Line:Relation:7136184,30217,48.7630822,Choisy-le-Roi RER,582,Mairie de Choisy-le-Roi,2.4065791,Route:Relation:150122
RATP,100100582:CHOISYB,StopPoint:Node:387479834,Line:Relation:7136184,22741,48.764996599999996,Choisy-le-Roi RER,582,Rouget de Lisle,2.4053584999999997,Route:Relation:150122
RATP,100100582:CHOISYB,StopPoint:Node:392683360,Line:Relation:7136184,23543,48.7678389,Choisy-le-Roi RER,582,Hugo-Mirabeau,2.4186796,Route:Relation:150122
RATP,100100582:CHOISYB,StopPoint:Node:1936001337,Line:Relation:7136184,28584,48.7618376,Choisy-le-Roi RER,582,Théophile Ducloux,2.4197375,Route:Relation:150122
RATP,100100582:CHOISYB,StopPoint:Node:4330471930,Line:Relation:7136184,30208,48.762900699999996,Choisy-le-Roi RER,582,Parc Paysager des Gondoles,2.4247699,Route:Relation:150122
RATP,100100582:CHOISYB,StopPoint:Node:392654785,Line:Relation:7136184,30210,48.766713599999996,Choisy-le-Roi RER,582,Stade Jean Bouin,2.4241466,Route:Relation:150122
RATP,100100582:CHOISYB,StopPoint:Node:392654786,Line:Relation:7136184,30207,48.7720371,Choisy-le-Roi RER,582,Collège Jules Valles,2.4211253999999998,Route:Relation:150122
RATP,100100582:CHOISYB,StopPoint:Node:413428632,Line:Relation:7136184,30212,48.7670325,Choisy-le-Roi RER,582,Auguste Franchot,2.4042914,Route:Relation:150122
RATP,100100582:CHOISYB,StopPoint:Node:413428636,Line:Relation:7136184,30221,48.7678587,Choisy-le-Roi RER,582,Émile Zola,2.4061485,Route:Relation:150122
RATP,100100582:CHOISYB,StopPoint:Node:422762754,Line:Relation:7136184,30201,48.772685599999996,Choisy-le-Roi RER,582,Cimetière,2.4022815,Route:Relation:150122
RATP,100100582:CHOISYB,StopPoint:Node:422762756,Line:Relation:7136184,30214,48.771045699999995,Choisy-le-Roi RER,582,Conservatoire,2.4039615999999997,Route:Relation:150122
RATP,100100582:CHOISYB,StopPoint:Node:5443966650,Line:Relation:7136184,415252,48.7687848,Choisy-le-Roi RER,582,8 Mai 1945,2.4087611,Route:Relation:150122
RATP,100100582:CHOISYB,StopPoint:Node:5443966646,Line:Relation:7136184,30206,48.767448699999996,Choisy-le-Roi RER,582,Clémenceau,2.4103716,Route:Relation:150122
RATP,100100120:120,StopPoint:Node:670930103,Line:Relation:1321223,28743,48.8348441,Hôpital Saint-Camille,120,Alma,2.5044429999999998,Route:Relation:156276
RATP,100100120:120,StopPoint:Node:670930575,Line:Relation:1321223,28744,48.834456499999995,Hôpital Saint-Camille,120,Guy Moquet,2.5106861,Route:Relation:156276
RATP,100100183:183,StopPoint:Node:2274067839,Line:Relation:5426450,26684,48.812616999999996,Aéroport d'Orly - Terminal Sud,183,Cimetière Parisien–Pl du Gén de Gaulle,2.3705859,Route:Relation:163664
RATP,100100183:183,StopPoint:Node:2274067870,Line:Relation:5426450,26682,48.8169368,Aéroport d'Orly - Terminal Sud,183,Verdun Chateaudun,2.367112,Route:Relation:163664
RATP,100100128:128,StopPoint:Node:3551981709,Line:Relation:6954593,414775,48.8219159,Robinson RER,128,Porte d'Orléans,2.3245258,Route:Relation:180765
RATP,100100128:128,StopPoint:Node:2076413211,Line:Relation:6954593,7842,48.8189802,Robinson RER,128,Gabrielle de Guerchy,2.3230058,Route:Relation:180765
RATP,100100128:128,StopPoint:Node:2344644900,Line:Relation:6954593,35155,48.8178075,Robinson RER,128,Mairie de Montrouge,2.3220639,Route:Relation:180765
RATP,100100128:128,StopPoint:Node:447882066,Line:Relation:6954593,35153,48.814360099999995,Robinson RER,128,Verdier,2.3203701,Route:Relation:180765
RATP,100100128:128,StopPoint:Node:447882071,Line:Relation:6954593,35154,48.8114044,Robinson RER,128,Boileau,2.3184793,Route:Relation:180765
RATP,100100128:128,StopPoint:Node:447882073,Line:Relation:6954593,35148,48.8094934,Robinson RER,128,Cimetière Parisien,2.3169315,Route:Relation:180765
RATP,100100128:128,StopPoint:Node:447882076,Line:Relation:6954593,413071,48.806387,Robinson RER,128,Jean-Marin Naudin,2.3138346,Route:Relation:180765
RATP,100100128:128,StopPoint:Node:447887510,Line:Relation:6954593,28756,48.8017624,Robinson RER,128,Pasteur,2.3104115,Route:Relation:180765
RATP,100100128:128,StopPoint:Node:447887513,Line:Relation:6954593,40825,48.8000024,Robinson RER,128,Rue de l'Égalité,2.3078733,Route:Relation:180765
RATP,100100128:128,StopPoint:Node:447887528,Line:Relation:6954593,28758,48.7985238,Robinson RER,128,Hôtel de Ville de Bagneux,2.304182,Route:Relation:180765
RATP,100100128:128,StopPoint:Node:447887531,Line:Relation:6954593,40081,48.79738,Robinson RER,128,Rue Froide,2.3004567,Route:Relation:180765
RATP,100100128:128,StopPoint:Node:447887532,Line:Relation:6954593,40089,48.7952395,Robinson RER,128,Dampierre,2.3001511999999997,Route:Relation:180765
RATP,100100128:128,StopPoint:Node:447891061,Line:Relation:6954593,28761,48.7930468,Robinson RER,128,Sentier des Lilas,2.2959006,Route:Relation:180765
RATP,100100128:128,StopPoint:Node:447891067,Line:Relation:6954593,26829,48.7898711,Robinson RER,128,Château Sainte-Barbe,2.2920279,Route:Relation:180765
RATP,100100128:128,StopPoint:Node:447894693,Line:Relation:6954593,35152,48.7881802,Robinson RER,128,Fontenay-aux-Roses RER,2.2933285,Route:Relation:180765
RATP,100100128:128,StopPoint:Node:447894695,Line:Relation:6954593,27896,48.785086,Robinson RER,128,Gambetta,2.2933697,Route:Relation:180765
RATP,100100128:128,StopPoint:Node:447900832,Line:Relation:6954593,12320,48.7815145,Robinson RER,128,Rue du Lycée,2.293307,Route:Relation:180765
RATP,100100128:128,StopPoint:Node:447900838,Line:Relation:6954593,22333,48.778999999999996,Robinson RER,128,Fontenay-Houdan,2.2910315999999997,Route:Relation:180765
RATP,100100128:128,StopPoint:Node:447900840,Line:Relation:6954593,35811,48.7789119,Robinson RER,128,Mairie de Sceaux,2.2882496,Route:Relation:180765
RATP,100100128:128,StopPoint:Node:447902857,Line:Relation:6954593,26805,48.7790748,Robinson RER,128,Cimetière de Sceaux,2.2834537,Route:Relation:180765
RATP,100100128:128,StopPoint:Node:3104458731,Line:Relation:6954593,40386,48.779586699999996,Robinson RER,128,Robinson RER,2.2813706,Route:Relation:180765
RATP,100100105:105,StopPoint:Node:2878817125,Line:Relation:7444602,36896,48.8785313,Mairie des Pavillons-sous-Bois,105,Les Bruyères,2.4115848,Route:Relation:223747
RATP,100100105:105,StopPoint:Node:2878817125,Line:Relation:7444602,36987,48.8785313,Mairie des Pavillons-sous-Bois,105,Les Bruyères,2.4115848,Route:Relation:223747
RATP,100100105:105,StopPoint:Node:621353037,Line:Relation:7444602,26440,48.8850888,Mairie des Pavillons-sous-Bois,105,Mairie de Romainville,2.4350079,Route:Relation:223747
RATP,100100129:129,StopPoint:Node:2878817125,Line:Relation:1857145,36896,48.8785313,Mairie de Montreuil,129,Les Bruyères,2.4115848,Route:Relation:225660
RATP,100100129:129,StopPoint:Node:2878817125,Line:Relation:1857145,36987,48.8785313,Mairie de Montreuil,129,Les Bruyères,2.4115848,Route:Relation:225660
RATP,100100129:129,StopPoint:Node:1849926696,Line:Relation:1857145,26439,48.8848348,Mairie de Montreuil,129,Vassou - Lénine,2.4323525,Route:Relation:225660
RATP,100100129:129,StopPoint:Node:621353037,Line:Relation:1857145,26440,48.8850888,Mairie de Montreuil,129,Mairie de Romainville,2.4350079,Route:Relation:225660
RATP,100100249:249,StopPoint:Node:1254715329,Line:Relation:6608978,23028,48.8981259,Centre Ville (Dugny),249,Delizy,2.4057637,Route:Relation:226265
RATP,100100249:249,StopPoint:Node:933859832,Line:Relation:6608978,413017,48.8967282,Centre Ville (Dugny),249,Pantin RER - Mairie,2.4020137,Route:Relation:226265
RATP,100100249:249,StopPoint:Node:2843235423,Line:Relation:6608978,36706,48.8990255,Centre Ville (Dugny),249,Jean Moulin,2.3973515,Route:Relation:226265
RATP,100100249:249,StopPoint:Node:2843235426,Line:Relation:6608978,8102,48.9014605,Centre Ville (Dugny),249,La Pérouse,2.3942186,Route:Relation:226265
RATP,100100249:249,StopPoint:Node:2783392597,Line:Relation:6608978,22521,48.9033325,Centre Ville (Dugny),249,Quatre Chemins - Édouard Vaillant,2.3924488,Route:Relation:226265
RATP,100100249:249,StopPoint:Node:2783392603,Line:Relation:6608978,29299,48.904205,Centre Ville (Dugny),249,Quatre Chemins - République,2.3916158999999997,Route:Relation:226265
RATP,100100249:249,StopPoint:Node:3760193618,Line:Relation:6608978,29295,48.9091052,Centre Ville (Dugny),249,Paul Bert,2.3907067,Route:Relation:226265
RATP,100100249:249,StopPoint:Node:3760220079,Line:Relation:6608978,29305,48.9244943,Centre Ville (Dugny),249,Général Schramm,2.386002,Route:Relation:226265
RATP,100100249:249,StopPoint:Node:3760243991,Line:Relation:6608978,29308,48.9297243,Centre Ville (Dugny),249,Chabrol,2.3959257,Route:Relation:226265
Daniel Meyer,055055022:DM22,StopPoint:Node:2640208732,Line:Relation:5998406,15132,48.6510284,Gare de Savigny-sur-Orge,DM22,Le Haricot,2.3966343,Route:Relation:251803
Daniel Meyer,055055022:DM22,StopPoint:Node:2648545238,Line:Relation:5998406,3548,48.671529199999995,Gare de Savigny-sur-Orge,DM22,Bretagne,2.3649838,Route:Relation:251803
Daniel Meyer,055055022:DM22,StopPoint:Node:497028946,Line:Relation:5998406,3582,48.6677871,Gare de Savigny-sur-Orge,DM22,Molière,2.3602133999999997,Route:Relation:251803
Daniel Meyer,055055022:DM22,StopPoint:Node:1625824409,Line:Relation:5998406,3945,48.6535169,Gare de Savigny-sur-Orge,DM22,Pablo Neruda,2.3919951,Route:Relation:251803
Daniel Meyer,055055022:DM22,StopPoint:Node:661048884,Line:Relation:5998406,3571,48.6667369,Gare de Savigny-sur-Orge,DM22,Le Billoir,2.3637816,Route:Relation:251803
Daniel Meyer,055055022:DM22,StopPoint:Node:497040886,Line:Relation:5998406,3554,48.6707488,Gare de Savigny-sur-Orge,DM22,Lt Col. Bizeul,2.3600214,Route:Relation:251803
Daniel Meyer,055055022:DM22,StopPoint:Node:3241761263,Line:Relation:5998406,3823,48.6531099,Gare de Savigny-sur-Orge,DM22,Grigny Centre RER,2.3951317,Route:Relation:251803
RATP,100100318:318,StopPoint:Node:1257233400,Line:Relation:1555939,421221,48.8440831,Raymond Queneau (Pantin),318,Château de Vincennes,2.4418537,Route:Relation:254845
RATP,100100318:318,StopPoint:Node:1209143170,Line:Relation:1555939,36980,48.844823,Raymond Queneau (Pantin),318,Avenue du Château,2.436788,Route:Relation:254845
RATP,100100318:318,StopPoint:Node:1257995997,Line:Relation:1555939,27880,48.845221699999996,Raymond Queneau (Pantin),318,Vignerons,2.4326602999999998,Route:Relation:254845
RATP,100100318:318,StopPoint:Node:4000635735,Line:Relation:1555939,421216,48.847092599999996,Raymond Queneau (Pantin),318,Vincennes RER,2.4301559999999998,Route:Relation:254845
RATP,100100318:318,StopPoint:Node:5034010506,Line:Relation:1555939,24825,48.8486167,Raymond Queneau (Pantin),318,Fraternité,2.4322459,Route:Relation:254845
RATP,100100318:318,StopPoint:Node:5034010505,Line:Relation:1555939,8175,48.8492866,Raymond Queneau (Pantin),318,Les Laitières,2.4261719999999998,Route:Relation:254845
RATP,100100318:318,StopPoint:Node:5034010504,Line:Relation:1555939,24734,48.851663099999996,Raymond Queneau (Pantin),318,Cuvier,2.424159,Route:Relation:254845
RATP,100100318:318,StopPoint:Node:4330713500,Line:Relation:1555939,24939,48.852937,Raymond Queneau (Pantin),318,Raspail - République,2.4237766,Route:Relation:254845
RATP,100100318:318,StopPoint:Node:4210286641,Line:Relation:1555939,22671,48.8558853,Raymond Queneau (Pantin),318,Robespierre Metro,2.4228921,Route:Relation:254845
RATP,100100318:318,StopPoint:Node:4210286642,Line:Relation:1555939,24935,48.8584086,Raymond Queneau (Pantin),318,Victor Hugo,2.4214031,Route:Relation:254845
RATP,100100318:318,StopPoint:Node:1402799846,Line:Relation:1555939,26372,48.860566,Raymond Queneau (Pantin),318,République - Robespierre,2.4200577,Route:Relation:254845
RATP,100100318:318,StopPoint:Node:2416347199,Line:Relation:1555939,26331,48.8617302,Raymond Queneau (Pantin),318,Général de Gaulle,2.4172455,Route:Relation:254845
RATP,100100318:318,StopPoint:Node:2414716193,Line:Relation:1555939,421222,48.865035899999995,Raymond Queneau (Pantin),318,Bagnolet – Gallieni,2.4173755,Route:Relation:254845
RATP,100100318:318,StopPoint:Node:2841627118,Line:Relation:1555939,26330,48.867498,Raymond Queneau (Pantin),318,Centre de Santé,2.4176355,Route:Relation:254845
RATP,100100318:318,StopPoint:Node:2841627123,Line:Relation:1555939,37553,48.868055299999995,Raymond Queneau (Pantin),318,La Poste,2.4159138,Route:Relation:254845
RATP,100100318:318,StopPoint:Node:5034010503,Line:Relation:1555939,18726,48.869040999999996,Raymond Queneau (Pantin),318,Mairie de Bagnolet,2.4156215999999997,Route:Relation:254845
RATP,100100318:318,StopPoint:Node:5034010502,Line:Relation:1555939,36951,48.870970299999996,Raymond Queneau (Pantin),318,Marie-Anne Colombier,2.4176815,Route:Relation:254845
RATP,100100318:318,StopPoint:Node:5034010501,Line:Relation:1555939,39712,48.872926799999995,Raymond Queneau (Pantin),318,Gambetta – René Alazard,2.4197455,Route:Relation:254845
RATP,100100318:318,StopPoint:Node:5034010500,Line:Relation:1555939,39713,48.872566,Raymond Queneau (Pantin),318,René Alazard – Sadi Carnot,2.4217155999999997,Route:Relation:254845
RATP,100100318:318,StopPoint:Node:5034010499,Line:Relation:1555939,26408,48.875263399999994,Raymond Queneau (Pantin),318,Girardot,2.4239498,Route:Relation:254845
RATP,100100318:318,StopPoint:Node:3912829329,Line:Relation:1555939,421219,48.878027599999996,Raymond Queneau (Pantin),318,Floréal,2.4271446,Route:Relation:254845
RATP,100100318:318,StopPoint:Node:3912829344,Line:Relation:1555939,25213,48.8784492,Raymond Queneau (Pantin),318,Jeanne Hornet,2.4308836,Route:Relation:254845
RATP,100100318:318,StopPoint:Node:3912829342,Line:Relation:1555939,25214,48.8792131,Raymond Queneau (Pantin),318,Les Noyers,2.4337187,Route:Relation:254845
RATP,100100318:318,StopPoint:Node:3912829332,Line:Relation:1555939,25215,48.8807512,Raymond Queneau (Pantin),318,Gabriel Husson,2.4373798,Route:Relation:254845
RATP,100100318:318,StopPoint:Node:2878817119,Line:Relation:1555939,21189,48.8834247,Raymond Queneau (Pantin),318,Carnot,2.4405018999999997,Route:Relation:254845
RATP,100100318:318,StopPoint:Node:621352749,Line:Relation:1555939,26438,48.8852154,Raymond Queneau (Pantin),318,Mairie de Romainville,2.434971,Route:Relation:254845
RATP,100100318:318,StopPoint:Node:1849926697,Line:Relation:1555939,39576,48.885383,Raymond Queneau (Pantin),318,Vassou – Lénine,2.4302932,Route:Relation:254845
RATP,100100318:318,StopPoint:Node:3912625990,Line:Relation:1555939,26519,48.888914299999996,Raymond Queneau (Pantin),318,Maneyrol,2.4282508,Route:Relation:254845
RATP,100100318:318,StopPoint:Node:3912774159,Line:Relation:1555939,26520,48.8907903,Raymond Queneau (Pantin),318,Bretagnes,2.4269135,Route:Relation:254845
RATP,100100318:318,StopPoint:Node:3912773975,Line:Relation:1555939,26516,48.8919065,Raymond Queneau (Pantin),318,Centre d'Activités,2.4281714,Route:Relation:254845
RATP,100100318:318,StopPoint:Node:3912780096,Line:Relation:1555939,18730,48.8922017,Raymond Queneau (Pantin),318,Chantaloups,2.4334438,Route:Relation:254845
RATP,100100318:318,StopPoint:Node:3895507403,Line:Relation:1555939,7942,48.894072,Raymond Queneau (Pantin),318,Louise Dory,2.4338368,Route:Relation:254845
RATP,100100318:318,StopPoint:Node:3895507364,Line:Relation:1555939,25960,48.895417599999995,Raymond Queneau (Pantin),318,Raymond Queneau – Route de Noisy,2.42686,Route:Relation:254845
Daniel Meyer,055055004:DM04,StopPoint:Node:5296298735,Line:Relation:5989121,35134,48.6516263,RER Gare Condorcet,DM4,Le Damier,2.3816520999999997,Route:Relation:271451
Daniel Meyer,055055004:DM04,StopPoint:Node:556399281,Line:Relation:5989121,3113,48.654849,RER Gare Condorcet,DM4,La Serpente,2.378503,Route:Relation:271451
Daniel Meyer,055055004:DM04,StopPoint:Node:5296298732,Line:Relation:5989121,3747,48.6565799,RER Gare Condorcet,DM4,Les Solstices,2.3732343,Route:Relation:271451
Daniel Meyer,055055004:DM04,StopPoint:Node:5296298730,Line:Relation:5989121,4035,48.6533072,RER Gare Condorcet,DM4,Ferme Neuve,2.3856542999999997,Route:Relation:271451
Keolis Seine Val-De-Marne,002002009:9,StopPoint:Node:519909311,Line:Relation:7147174,40423,48.7528776,Centre Commercial - Pont de Vitry,9,Stade Mimoun,2.3989016999999997,Route:Relation:280115
Keolis Seine Val-De-Marne,002002009:9,StopPoint:Node:5443966640,Line:Relation:7147174,37278,48.7956848,Centre Commercial - Pont de Vitry,9,Charles Heller,2.4095874999999998,Route:Relation:280115
Keolis Seine Val-De-Marne,002002009:9,StopPoint:Node:5443966647,Line:Relation:7147174,415226,48.788536799999996,Centre Commercial - Pont de Vitry,9,Rue Tortue,2.4120947,Route:Relation:280115
RATP,100100185:185,StopPoint:Node:3655202725,Line:Relation:3008945,36701,48.811011,Porte d'Italie,185,Le Kremlin-Bicêtre-Métro,2.3622107999999997,Route:Relation:306279
RATP,100100185:185,StopPoint:Node:3655197626,Line:Relation:3008945,29847,48.8125151,Porte d'Italie,185,Convention-Fontainebleau,2.3617239,Route:Relation:306279
RATP,100100185:185,StopPoint:Node:2084076552,Line:Relation:3008945,24342,48.8149016,Porte d'Italie,185,Roger Salengro - Fontainebleau,2.3609774999999997,Route:Relation:306279
RATP,100100185:185,StopPoint:Node:3890050126,Line:Relation:3008945,25204,48.7751333,Porte d'Italie,185,Camille Risch,2.3741083,Route:Relation:306279
RATP,100100185:185,StopPoint:Node:2388300577,Line:Relation:3008945,22921,48.7644394,Porte d'Italie,185,Choisy-le-Roi RER,2.4123074,Route:Relation:306279
RATP,100100185:185,StopPoint:Node:3110695911,Line:Relation:3008945,37178,48.7938222,Porte d'Italie,185,Guynemer–Maxime Gorki,2.3692878,Route:Relation:306279
RATP,100100185:185,StopPoint:Node:979833133,Line:Relation:3008945,22861,48.8186825,Porte d'Italie,185,Porte d'Italie–Hélène Boucher,2.3597739,Route:Relation:306279
RATP,100100185:185,StopPoint:Node:1679943171,Line:Relation:3008945,7850,48.777674999999995,Porte d'Italie,185,Paul Armangot,2.3767885,Route:Relation:306279
RATP,100100185:185,StopPoint:Node:1822954620,Line:Relation:3008945,37180,48.7924169,Porte d'Italie,185,Guynemer–Place des Fusillés,2.3665803999999997,Route:Relation:306279
RATP,100100172:172,StopPoint:Node:3567243701,Line:Relation:5963159,40167,48.7802358,Créteil L'Échat-Parking,172,Bourg-la-Reine RER,2.3132934,Route:Relation:331381
RATP,100100172:172,StopPoint:Node:5471115173,Line:Relation:5963159,40166,48.7796661,Créteil L'Échat-Parking,172,Condorcet - Mairie,2.3154565,Route:Relation:331381
RATP,100100172:172,StopPoint:Node:5443966640,Line:Relation:5963159,37278,48.7956848,Créteil L'Échat-Parking,172,Charles Heller,2.4095874999999998,Route:Relation:331381
RATP,100100180:180,StopPoint:Node:1454369467,Line:Relation:5955532,415866,48.8253333,Villejuif - Louis Aragon,180,Liberté,2.4062403,Route:Relation:332424
RATP,100100180:180,StopPoint:Node:1345764367,Line:Relation:5955532,414767,48.822928399999995,Villejuif - Louis Aragon,180,Pont Nelson Mandela - Rive Droite,2.4027504,Route:Relation:332424
RATP,100100180:180,StopPoint:Node:3522621287,Line:Relation:5955532,27589,48.8226069,Villejuif - Louis Aragon,180,Pont Nelson Mandela - Rives de Bercy,2.4006421,Route:Relation:332424
RATP,100100180:180,StopPoint:Node:1504208290,Line:Relation:5955532,420280,48.818424,Villejuif - Louis Aragon,180,Vaillant-Couturier - Lénine,2.3974713,Route:Relation:332424
RATP,100100180:180,StopPoint:Node:3647120642,Line:Relation:5955532,29955,48.7880038,Villejuif - Louis Aragon,180,Villejuif–Louis Aragon,2.3676033,Route:Relation:332424
RATP,100100122:122,StopPoint:Node:4801376167,Line:Relation:1621799,36984,48.862829399999995,Val de Fontenay RER,122,Jules Guesde,2.4821858,Route:Relation:332720
RATP,100100396:396,StopPoint:Node:930347100,Line:Relation:7843394,22884,48.7622497,,396,Général de Gaulle - Croix de Berny,2.3083473,Route:Relation:371128
RATP,100100396:396,StopPoint:Node:1606140515,Line:Relation:7843394,22882,48.760181499999995,,396,Morteaux,2.3075807,Route:Relation:371128
RATP,100100396:396,StopPoint:Node:1606140516,Line:Relation:7843394,22881,48.757610799999995,,396,Fernand Fenzy,2.3065458999999997,Route:Relation:371128
RATP,100100396:396,StopPoint:Node:1606161285,Line:Relation:7843394,29874,48.7528754,,396,Auguste Mounié - Division Leclerc,2.3047448999999998,Route:Relation:371128
RATP,100100216:216,StopPoint:Node:924117533,Line:Relation:6860557,23567,48.833524499999996,Marché International de Rungis,216,Denfert Rochereau,2.3339624,Route:Relation:371129
RATP,100100216:216,StopPoint:Node:4332378087,Line:Relation:6860557,26840,48.832152699999995,Marché International de Rungis,216,Dareau - Saint-Jacques,2.3389823,Route:Relation:371129
RATP,100100216:216,StopPoint:Node:1319910485,Line:Relation:6860557,24146,48.8258805,Marché International de Rungis,216,Glacière - Tolbiac,2.3410294,Route:Relation:371129
RATP,100100216:216,StopPoint:Node:1179843924,Line:Relation:6860557,25722,48.8242957,Marché International de Rungis,216,Parc Montsouris,2.3399433999999997,Route:Relation:371129
RATP,100100216:216,StopPoint:Node:4539063161,Line:Relation:6860557,29857,48.8214512,Marché International de Rungis,216,Cité Universitaire,2.3409928,Route:Relation:371129
RATP,100100216:216,StopPoint:Node:1395190626,Line:Relation:6860557,37833,48.8188531,Marché International de Rungis,216,Stade Charléty-Porte de Gentilly,2.3442844,Route:Relation:371129
RATP,100100131:131,StopPoint:Node:3655202725,Line:Relation:3334641,36701,48.811011,Porte d'Italie,131,Le Kremlin-Bicêtre-Métro,2.3622107999999997,Route:Relation:371130
RATP,100100131:131,StopPoint:Node:3655197626,Line:Relation:3334641,29847,48.8125151,Porte d'Italie,131,Convention-Fontainebleau,2.3617239,Route:Relation:371130
RATP,100100131:131,StopPoint:Node:2084076552,Line:Relation:3334641,24342,48.8149016,Porte d'Italie,131,Roger Salengro - Fontainebleau,2.3609774999999997,Route:Relation:371130
Seine-Saint-Denis,293193617:617,StopPoint:Node:3790118950,Line:Relation:7194122,19261,48.9363465,Gare de Villepinte,617,Jean Charcot - Anatole France,2.4942396,Route:Relation:387826
Seine-Saint-Denis,293193617:617,StopPoint:Node:3790118951,Line:Relation:7194122,19250,48.9382634,Gare de Villepinte,617,L'Herminier,2.4952134,Route:Relation:387826
Seine-Saint-Denis,293193617:617,StopPoint:Node:3790118952,Line:Relation:7194122,18955,48.9465745,Gare de Villepinte,617,Legendre,2.4998044,Route:Relation:387826
Seine-Saint-Denis,293193615:615,StopPoint:Node:1519365345,Line:Relation:5594143,19437,48.9364913,Villepinte RER,615,Collège Gérard Philipe‎,2.5040478,Route:Relation:387827
Les Courriers de l'Île-de-France,014014043:43,StopPoint:Node:2124497612,Line:Relation:6161018,19401,48.9381712,Aéroport CDG1 RER B,43,Gaston Bussière,2.5293894999999997,Route:Relation:411434
Les Courriers de l'Île-de-France,014014043:43,StopPoint:Node:1832497885,Line:Relation:6161018,18999,48.9395782,Aéroport CDG1 RER B,43,Lycée d'Aulnay,2.5096579,Route:Relation:411434
Daniel Meyer,055055008:DM08,StopPoint:Node:2648545238,Line:Relation:6001282,3548,48.671529199999995,Porte de L'Essonne - Paray-Vieille-Poste,DM8,Bretagne,2.3649838,Route:Relation:416220
Daniel Meyer,055055008:DM08,StopPoint:Node:556399281,Line:Relation:6001282,3113,48.654849,Porte de L'Essonne - Paray-Vieille-Poste,DM8,La Serpente,2.378503,Route:Relation:416220
Daniel Meyer,055055008:DM08,StopPoint:Node:651525651,Line:Relation:6001282,3275,48.6456054,Porte de L'Essonne - Paray-Vieille-Poste,DM8,Les Jonquilles,2.3466261999999998,Route:Relation:416220
Daniel Meyer,055055008:DM08,StopPoint:Node:5296298735,Line:Relation:6001282,35134,48.6516263,Porte de L'Essonne - Paray-Vieille-Poste,DM8,Le Damier,2.3816520999999997,Route:Relation:416220
Daniel Meyer,055055008:DM08,StopPoint:Node:661045292,Line:Relation:6001282,3852,48.6604378,Porte de L'Essonne - Paray-Vieille-Poste,DM8,Jean Moulin,2.3678711,Route:Relation:416220
Daniel Meyer,055055008:DM08,StopPoint:Node:694307790,Line:Relation:6001282,3586,48.6812399,Porte de L'Essonne - Paray-Vieille-Poste,DM8,Calypso,2.3786879,Route:Relation:416220
Daniel Meyer,055055008:DM08,StopPoint:Node:661048884,Line:Relation:6001282,3571,48.6667369,Porte de L'Essonne - Paray-Vieille-Poste,DM8,Le Billoir,2.3637816,Route:Relation:416220
Daniel Meyer,055055008:DM08,StopPoint:Node:5296298732,Line:Relation:6001282,3747,48.6565799,Porte de L'Essonne - Paray-Vieille-Poste,DM8,Les Solstices,2.3732343,Route:Relation:416220
Daniel Meyer,055055008:DM08,StopPoint:Node:651525589,Line:Relation:6001282,3273,48.6464755,Porte de L'Essonne - Paray-Vieille-Poste,DM8,Les Fouilles,2.3578775,Route:Relation:416220
Daniel Meyer,055055008:DM08,StopPoint:Node:4253076949,Line:Relation:6001282,3588,48.6751721,Porte de L'Essonne - Paray-Vieille-Poste,DM8,Petit Montmartre,2.3676014,Route:Relation:416220
Daniel Meyer,055055008:DM08,StopPoint:Node:497040886,Line:Relation:6001282,3554,48.6707488,Porte de L'Essonne - Paray-Vieille-Poste,DM8,Lt Col. Bizeul,2.3600214,Route:Relation:416220
Daniel Meyer,055055008:DM08,StopPoint:Node:661045295,Line:Relation:6001282,3560,48.6616638,Porte de L'Essonne - Paray-Vieille-Poste,DM8,Voie de Compiègne,2.3634082,Route:Relation:416220
Daniel Meyer,055055008:DM08,StopPoint:Node:661045295,Line:Relation:6001282,3999,48.6616638,Porte de L'Essonne - Paray-Vieille-Poste,DM8,Voie de Compiègne,2.3634082,Route:Relation:416220
Daniel Meyer,055055008:DM08,StopPoint:Node:651525638,Line:Relation:6001282,3277,48.647653899999995,Porte de L'Essonne - Paray-Vieille-Poste,DM8,Les Pervenches,2.3476412,Route:Relation:416220
Daniel Meyer,055055008:DM08,StopPoint:Node:661048896,Line:Relation:6001282,3550,48.678014999999995,Porte de L'Essonne - Paray-Vieille-Poste,DM8,Café des Sports,2.372916,Route:Relation:416220
Daniel Meyer,055055008:DM08,StopPoint:Node:497028946,Line:Relation:6001282,3582,48.6677871,Porte de L'Essonne - Paray-Vieille-Poste,DM8,Molière,2.3602133999999997,Route:Relation:416220
Daniel Meyer,055055008:DM08,StopPoint:Node:5296298730,Line:Relation:6001282,4035,48.6533072,Porte de L'Essonne - Paray-Vieille-Poste,DM8,Ferme Neuve,2.3856542999999997,Route:Relation:416220
Daniel Meyer,055055008:DM08,StopPoint:Node:661048897,Line:Relation:6001282,3556,48.6638659,Porte de L'Essonne - Paray-Vieille-Poste,DM8,Docteur Roux,2.3599313,Route:Relation:416220
Phébus,056356116:J,StopPoint:Node:4861762230,Line:Relation:7483890,20336,48.7553193,Jouy-en-Josas - Saclay,J,Val d'Albian Villeras,2.1802639999999998,Route:Relation:534174
RATP,100100173:173,StopPoint:Node:1216262771,Line:Relation:1553162,412999,48.899318699999995,La Courneuve–8 mai 1945,173,Bois le Prêtre,2.3210074,Route:Relation:937387
RATP,100100173:173,StopPoint:Node:1206262788,Line:Relation:1553162,36335,48.901805599999996,La Courneuve–8 mai 1945,173,Victor Hugo-Morel,2.3176664,Route:Relation:937387
RATP,100100317:317,StopPoint:Node:1227177082,Line:Relation:2853923,41423,48.8281454,Hôtel de Ville de Créteil,317,Parc du Tremblay,2.4936532,Route:Relation:938118
RATP,100100317:317,StopPoint:Node:749579728,Line:Relation:2853923,28828,48.8111233,Hôtel de Ville de Créteil,317,Libération-Condé,2.4766252,Route:Relation:938118
RATP,100100317:317,StopPoint:Node:749579632,Line:Relation:2853923,42018,48.8072588,Hôtel de Ville de Créteil,317,Libération - Rabelais,2.4747291,Route:Relation:938118
RATP,100100317:317,StopPoint:Node:749579530,Line:Relation:2853923,28729,48.8041142,Hôtel de Ville de Créteil,317,Le Parc de Saint-Maur RER,2.4868501999999997,Route:Relation:938118
RATP,100100317:317,StopPoint:Node:1224811465,Line:Relation:2853923,28831,48.7981479,Hôtel de Ville de Créteil,317,Théâtre de Saint-Maur,2.4855020999999997,Route:Relation:938118
RATP,100100317:317,StopPoint:Node:749579482,Line:Relation:2853923,7794,48.7982782,Hôtel de Ville de Créteil,317,Beaujeu,2.4788673,Route:Relation:938118
RATP,100100317:317,StopPoint:Node:749579498,Line:Relation:2853923,28832,48.7991527,Hôtel de Ville de Créteil,317,Docteur Tourasse,2.4730252,Route:Relation:938118
RATP,100100317:317,StopPoint:Node:1552445511,Line:Relation:2853923,22478,48.806266099999995,Hôtel de Ville de Créteil,317,Cimetière Rabelais,2.4796726,Route:Relation:938118
RATP,100100317:317,StopPoint:Node:1552445531,Line:Relation:2853923,28730,48.806407,Hôtel de Ville de Créteil,317,Cimetière Rabelais,2.4794459,Route:Relation:938118
RATP,100100237:237,StopPoint:Node:5296341991,Line:Relation:7447705,2356,48.9543244,Mairie de Saint-Ouen,237,Gilbert Bonnemaison,2.3077113,Route:Relation:949581
RATP,100100112:112,StopPoint:Node:1226726047,Line:Relation:1520618,39550,48.7944059,Château de Vincennes,112,La Varenne - Chennevières RER,2.5139621,Route:Relation:950803
RATP,100100112:112,StopPoint:Node:1226928446,Line:Relation:1520618,28066,48.796228,Château de Vincennes,112,Avenue de Bonneuil,2.5071703999999997,Route:Relation:950803
RATP,100100112:112,StopPoint:Node:1226917572,Line:Relation:1520618,28070,48.797493599999996,Château de Vincennes,112,Place Jean Moulin,2.5039862999999998,Route:Relation:950803
RATP,100100112:112,StopPoint:Node:1226917617,Line:Relation:1520618,28075,48.7979108,Château de Vincennes,112,Edgar Quinet,2.4989585,Route:Relation:950803
RATP,100100112:112,StopPoint:Node:1226928460,Line:Relation:1520618,39549,48.79691,Château de Vincennes,112,Avenue Victoria,2.4959463,Route:Relation:950803
RATP,100100112:112,StopPoint:Node:1226917585,Line:Relation:1520618,28067,48.793889799999995,Château de Vincennes,112,Place Rimini,2.4952019,Route:Relation:950803
RATP,100100112:112,StopPoint:Node:1226917486,Line:Relation:1520618,28069,48.7938385,Château de Vincennes,112,Docteur Roux,2.4925381,Route:Relation:950803
RATP,100100112:112,StopPoint:Node:1226917498,Line:Relation:1520618,28068,48.7938937,Château de Vincennes,112,Adamville,2.4873084999999997,Route:Relation:950803
RATP,100100112:112,StopPoint:Node:1226917534,Line:Relation:1520618,28726,48.7958834,Château de Vincennes,112,Garibaldi,2.4836033,Route:Relation:950803
RATP,100100112:112,StopPoint:Node:749579482,Line:Relation:1520618,7794,48.7982782,Château de Vincennes,112,Beaujeu,2.4788673,Route:Relation:950803
RATP,100100112:112,StopPoint:Node:1234552478,Line:Relation:1520618,7789,48.809321,Château de Vincennes,112,Croix-Souris,2.4711886,Route:Relation:950803
RATP,100100112:112,StopPoint:Node:1244371717,Line:Relation:1520618,28071,48.812354799999994,Château de Vincennes,112,Maurice Berteaux,2.4688464,Route:Relation:950803
RATP,100100361:361,StopPoint:Node:5296341991,Line:Relation:6835726,2356,48.9543244,Pierrefitte–Stains RER,361,Gilbert Bonnemaison,2.3077113,Route:Relation:952668
RATP,100100361:361,StopPoint:Node:4821404640,Line:Relation:6835726,426612,48.9596734,Pierrefitte–Stains RER,361,Université - Tramway,2.3420653,Route:Relation:952668
RATP,100100238:238,StopPoint:Node:5296341991,Line:Relation:6827371,2356,48.9543244,Pont de Levallois,238,Gilbert Bonnemaison,2.3077113,Route:Relation:952689
RATP,100100238:238,StopPoint:Node:766299125,Line:Relation:6827371,12421,48.9436526,Pont de Levallois,238,Bassin n°5,2.2950054,Route:Relation:952689
RATP,100100238:238,StopPoint:Node:1616110199,Line:Relation:6827371,26654,48.9232953,Pont de Levallois,238,Les Agnettes-Metro,2.2860065,Route:Relation:952689
RATP,100100238:238,StopPoint:Node:4347002248,Line:Relation:6827371,28485,48.9122304,Pont de Levallois,238,Comète,2.2846211999999997,Route:Relation:952689
RATP,100100238:238,StopPoint:Node:2702386998,Line:Relation:6827371,23579,48.902504,Pont de Levallois,238,Quai de Clichy,2.2874008999999997,Route:Relation:952689
RATP,100100238:238,StopPoint:Node:1557210445,Line:Relation:6827371,20419,48.899663,Pont de Levallois,238,Picasso,2.280252,Route:Relation:952689
RATP,100100238:238,StopPoint:Node:5283741780,Line:Relation:6827371,28583,48.9099796,Pont de Levallois,238,Gallieni,2.2860407,Route:Relation:952689
RATP,100100302:302,StopPoint:Node:884493127,Line:Relation:2989343,34811,48.8818122,La Courneuve–Six Routes,302,Cail - Demarquay,2.3584802,Route:Relation:954984
RATP,100100467:467,StopPoint:Node:1003155580,Line:Relation:1709309,22462,48.8410817,Rueil-Malmaison RER,467,Pont de Saint-Cloud - Albert Kahn,2.2268847,Route:Relation:968729
RATP,100100467:467,StopPoint:Node:2625917214,Line:Relation:1709309,7928,48.8839432,Rueil-Malmaison RER,467,Baudin,2.1746088,Route:Relation:968729
Noctilien,100987784:N13,StopPoint:Node:1531186722,Line:Relation:1547966,28273,48.909945799999996,Mairie d’Issy,N13,Gare - Grande Ceinture,2.4305078,Route:Relation:1057571
Noctilien,100987784:N13,StopPoint:Node:3902808396,Line:Relation:1547966,28274,48.906109699999995,Mairie d’Issy,N13,Henri Gautier,2.4224479999999997,Route:Relation:1057571
Noctilien,100987784:N13,StopPoint:Node:3903038001,Line:Relation:1547966,28279,48.9034828,Mairie d’Issy,N13,Chemin des Vignes,2.4170138999999997,Route:Relation:1057571
Noctilien,100987784:N13,StopPoint:Node:933859520,Line:Relation:1547966,28280,48.900238099999996,Mairie d’Issy,N13,Diderot,2.4102221999999998,Route:Relation:1057571
Noctilien,100987784:N13,StopPoint:Node:1254715329,Line:Relation:1547966,23028,48.8981259,Mairie d’Issy,N13,Delizy,2.4057637,Route:Relation:1057571
Noctilien,100987784:N13,StopPoint:Node:933859832,Line:Relation:1547966,413017,48.8967282,Mairie d’Issy,N13,Pantin RER - Mairie,2.4020137,Route:Relation:1057571
Noctilien,100987784:N13,StopPoint:Node:2025432165,Line:Relation:1547966,2242,48.8954581,Mairie d’Issy,N13,Centre National de la Danse,2.4010273,Route:Relation:1057571
Noctilien,100987784:N13,StopPoint:Node:5262409711,Line:Relation:1547966,26500,48.8915935,Mairie d’Issy,N13,Hoche - Métro,2.4022964,Route:Relation:1057571
Noctilien,100987784:N13,StopPoint:Node:813027552,Line:Relation:1547966,22975,48.871972899999996,Mairie d’Issy,N13,Mairie du 10e,2.3573147999999997,Route:Relation:1057571
Noctilien,100987784:N13,StopPoint:Node:813027519,Line:Relation:1547966,37122,48.868521,Mairie d’Issy,N13,Porte Saint-Martin,2.3553656999999997,Route:Relation:1057571
Noctilien,100987784:N13,StopPoint:Node:813027531,Line:Relation:1547966,24791,48.865732099999995,Mairie d’Issy,N13,Réaumur − Arts et Métiers,2.3545236,Route:Relation:1057571
Noctilien,100987784:N13,StopPoint:Node:706128129,Line:Relation:1547966,28262,48.8629143,Mairie d’Issy,N13,Grenier Saint-Lazare - Quartier de l'Horloge,2.3542841,Route:Relation:1057571
Noctilien,100987784:N13,StopPoint:Node:1014690200,Line:Relation:1547966,28259,48.8598612,Mairie d’Issy,N13,Centre Georges Pompidou,2.3525853999999997,Route:Relation:1057571
Noctilien,100987784:N13,StopPoint:Node:1999469416,Line:Relation:1547966,36483,48.8541362,Mairie d’Issy,N13,Saint-Michel,2.3436692999999997,Route:Relation:1057571
Noctilien,100987784:N13,StopPoint:Node:2043615213,Line:Relation:1547966,29791,48.8558899,Mairie d’Issy,N13,Pont Neuf - Quai des Grands Augustins,2.3408767999999998,Route:Relation:1057571
Noctilien,100987784:N13,StopPoint:Node:2043615219,Line:Relation:1547966,22720,48.8576653,Mairie d’Issy,N13,Pont des Arts - Quai de Conti,2.3376606,Route:Relation:1057571
Noctilien,100987784:N13,StopPoint:Node:973785559,Line:Relation:1547966,34167,48.857880699999995,Mairie d’Issy,N13,Pont du Carrousel - Quai Voltaire,2.3329161,Route:Relation:1057571
Noctilien,100987784:N13,StopPoint:Node:973785558,Line:Relation:1547966,8444,48.8557169,Mairie d’Issy,N13,Jacob,2.3311015999999998,Route:Relation:1057571
Noctilien,100987784:N13,StopPoint:Node:778362432,Line:Relation:1547966,37143,48.853243899999995,Mairie d’Issy,N13,Saint-Germain des Prés,2.3325237,Route:Relation:1057571
Noctilien,100987784:N13,StopPoint:Node:973577568,Line:Relation:1547966,37577,48.8512123,Mairie d’Issy,N13,Michel Debré,2.3306579,Route:Relation:1057571
Noctilien,100987784:N13,StopPoint:Node:973577568,Line:Relation:1547966,37142,48.8512123,Mairie d’Issy,N13,Michel Debré,2.3306579,Route:Relation:1057571
Noctilien,100987784:N13,StopPoint:Node:973577559,Line:Relation:1547966,37139,48.8487534,Mairie d’Issy,N13,Rennes - D'Assas,2.3283755,Route:Relation:1057571
Noctilien,100987784:N13,StopPoint:Node:973577560,Line:Relation:1547966,22641,48.8463862,Mairie d’Issy,N13,Rennes - Saint-Placide,2.3262199,Route:Relation:1057571
Noctilien,100987784:N13,StopPoint:Node:260017423,Line:Relation:1547966,22640,48.844848299999995,Mairie d’Issy,N13,Rennes - Littré,2.3247237,Route:Relation:1057571
Noctilien,100987784:N13,StopPoint:Node:2876905478,Line:Relation:1547966,22645,48.8436272,Mairie d’Issy,N13,Place du 18 Juin 1940 - Rue de l'Arrivée,2.3223946,Route:Relation:1057571
Noctilien,100987784:N13,StopPoint:Node:968070128,Line:Relation:1547966,39458,48.8410726,Mairie d’Issy,N13,Armorique–Musée Postal,2.3163833,Route:Relation:1057571
Noctilien,100987784:N13,StopPoint:Node:260016832,Line:Relation:1547966,23448,48.8432489,Mairie d’Issy,N13,Pasteur - Lycée Buffon,2.312666,Route:Relation:1057571
Noctilien,100987784:N13,StopPoint:Node:259856729,Line:Relation:1547966,37357,48.8446505,Mairie d’Issy,N13,Sèvres - Lecourbe,2.3093262,Route:Relation:1057571
Noctilien,100987784:N13,StopPoint:Node:259442664,Line:Relation:1547966,28675,48.842475199999996,Mairie d’Issy,N13,Cambronne - Lecourbe,2.3019567999999997,Route:Relation:1057571
Noctilien,100987784:N13,StopPoint:Node:259442692,Line:Relation:1547966,39323,48.8418451,Mairie d’Issy,N13,Mairie du 15e,2.2998841,Route:Relation:1057571
Noctilien,100987784:N13,StopPoint:Node:985449355,Line:Relation:1547966,8446,48.8407269,Mairie d’Issy,N13,Abbé Groult,2.2962412,Route:Relation:1057571
Noctilien,100987784:N13,StopPoint:Node:985449411,Line:Relation:1547966,27047,48.8391552,Mairie d’Issy,N13,Convention - Lecourbe,2.2912931,Route:Relation:1057571
Noctilien,100987784:N13,StopPoint:Node:985449368,Line:Relation:1547966,25717,48.838428799999996,Mairie d’Issy,N13,Duranton,2.2886314,Route:Relation:1057571
Noctilien,100987784:N13,StopPoint:Node:2631273827,Line:Relation:1547966,25718,48.837311,Mairie d’Issy,N13,Lycée Louis Amand,2.2846337,Route:Relation:1057571
Noctilien,100987784:N13,StopPoint:Node:985449305,Line:Relation:1547966,25747,48.8363687,Mairie d’Issy,N13,Balard - Lecourbe,2.2809863999999997,Route:Relation:1057571
Noctilien,100987784:N13,StopPoint:Node:450721743,Line:Relation:1547966,25452,48.8364081,Mairie d’Issy,N13,Balard,2.2782202,Route:Relation:1057571
Noctilien,100987784:N13,StopPoint:Node:450721743,Line:Relation:1547966,41285,48.8364081,Mairie d’Issy,N13,Balard,2.2782202,Route:Relation:1057571
Noctilien,100987784:N13,StopPoint:Node:259288775,Line:Relation:1547966,22988,48.828486299999994,Mairie d’Issy,N13,Frères Voisin,2.2734007,Route:Relation:1057571
Noctilien,100987784:N13,StopPoint:Node:968070126,Line:Relation:1547966,39331,48.8420777,Mairie d’Issy,N13,Gare Montparnasse,2.3198691,Route:Relation:1057571
Noctilien,100987784:N13,StopPoint:Node:1055820715,Line:Relation:1547966,39792,48.857485399999995,Mairie d’Issy,N13,Châtelet,2.3489236,Route:Relation:1057571
Noctilien,100987784:N13,StopPoint:Node:827320004,Line:Relation:1547966,36492,48.8558534,Mairie d’Issy,N13,Cité - Palais de Justice,2.3461144,Route:Relation:1057571
Noctilien,100987783:N14,StopPoint:Node:2077404284,Line:Relation:1547967,24876,48.9119451,Bourg-la-Reine RER,N14,Mairie de Saint-Ouen,2.3334025,Route:Relation:1057572
Noctilien,100987783:N14,StopPoint:Node:974091499,Line:Relation:1547967,22753,48.8981006,Bourg-la-Reine RER,N14,Porte de Montmartre - Boulevard Ney,2.3370689,Route:Relation:1057572
Noctilien,100987783:N14,StopPoint:Node:2078369979,Line:Relation:1547967,26984,48.8971162,Bourg-la-Reine RER,N14,Porte de Clignancourt,2.3448745,Route:Relation:1057572
Noctilien,100987783:N14,StopPoint:Node:1657998340,Line:Relation:1547967,36543,48.8910566,Bourg-la-Reine RER,N14,Marcadet - Poissonniers,2.3495078,Route:Relation:1057572
Noctilien,100987783:N14,StopPoint:Node:2889523045,Line:Relation:1547967,22809,48.8877968,Bourg-la-Reine RER,N14,Château Rouge,2.3495029,Route:Relation:1057572
Noctilien,100987783:N14,StopPoint:Node:2042462337,Line:Relation:1547967,22808,48.884315699999995,Bourg-la-Reine RER,N14,Barbès - Rochechouart,2.3493326,Route:Relation:1057572
Noctilien,100987783:N14,StopPoint:Node:2889523056,Line:Relation:1547967,28252,48.880868199999995,Bourg-la-Reine RER,N14,Magenta - Maubeuge - Gare du Nord,2.3518548,Route:Relation:1057572
Noctilien,100987783:N14,StopPoint:Node:2889523054,Line:Relation:1547967,26658,48.8788493,Bourg-la-Reine RER,N14,La Fayette - Magenta - Gare du Nord,2.3536485,Route:Relation:1057572
Noctilien,100987783:N14,StopPoint:Node:813027526,Line:Relation:1547967,22745,48.874539899999995,Bourg-la-Reine RER,N14,Magenta - Saint-Martin,2.358597,Route:Relation:1057572
Noctilien,100987783:N14,StopPoint:Node:813027552,Line:Relation:1547967,22975,48.871972899999996,Bourg-la-Reine RER,N14,Mairie du 10e,2.3573147999999997,Route:Relation:1057572
Noctilien,100987783:N14,StopPoint:Node:813027519,Line:Relation:1547967,37122,48.868521,Bourg-la-Reine RER,N14,Porte Saint-Martin,2.3553656999999997,Route:Relation:1057572
Noctilien,100987783:N14,StopPoint:Node:813027531,Line:Relation:1547967,24791,48.865732099999995,Bourg-la-Reine RER,N14,Réaumur − Arts et Métiers,2.3545236,Route:Relation:1057572
Noctilien,100987783:N14,StopPoint:Node:706128129,Line:Relation:1547967,28262,48.8629143,Bourg-la-Reine RER,N14,Grenier Saint-Lazare - Quartier de l'Horloge,2.3542841,Route:Relation:1057572
Noctilien,100987783:N14,StopPoint:Node:1014690200,Line:Relation:1547967,28259,48.8598612,Bourg-la-Reine RER,N14,Centre Georges Pompidou,2.3525853999999997,Route:Relation:1057572
Noctilien,100987783:N14,StopPoint:Node:827319995,Line:Relation:1547967,39779,48.8576274,Bourg-la-Reine RER,N14,Châtelet,2.3483969,Route:Relation:1057572
Noctilien,100987783:N14,StopPoint:Node:827320004,Line:Relation:1547967,36492,48.8558534,Bourg-la-Reine RER,N14,Cité - Palais de Justice,2.3461144,Route:Relation:1057572
Noctilien,100987783:N14,StopPoint:Node:676888667,Line:Relation:1547967,26619,48.8525918,Bourg-la-Reine RER,N14,Saint-Michel - Saint-Germain,2.3435859,Route:Relation:1057572
Noctilien,100987783:N14,StopPoint:Node:638572250,Line:Relation:1547967,8432,48.8497208,Bourg-la-Reine RER,N14,Les Écoles,2.3421402,Route:Relation:1057572
Noctilien,100987783:N14,StopPoint:Node:827320011,Line:Relation:1547967,36548,48.846361099999996,Bourg-la-Reine RER,N14,Luxembourg,2.3401536,Route:Relation:1057572
Noctilien,100987783:N14,StopPoint:Node:5406580627,Line:Relation:1547967,22976,48.8435853,Bourg-la-Reine RER,N14,Auguste Comte,2.3386214,Route:Relation:1057572
Noctilien,100987783:N14,StopPoint:Node:827320007,Line:Relation:1547967,22977,48.8421064,Bourg-la-Reine RER,N14,Val de Grâce,2.3378086,Route:Relation:1057572
Noctilien,100987783:N14,StopPoint:Node:827320006,Line:Relation:1547967,39759,48.8400021,Bourg-la-Reine RER,N14,Observatoire - Port Royal,2.3364511,Route:Relation:1057572
Noctilien,100987783:N14,StopPoint:Node:967125187,Line:Relation:1547967,26755,48.8408283,Bourg-la-Reine RER,N14,Campagne Première,2.333201,Route:Relation:1057572
Noctilien,100987783:N14,StopPoint:Node:790499337,Line:Relation:1547967,22989,48.8415819,Bourg-la-Reine RER,N14,Vavin,2.3295984,Route:Relation:1057572
Noctilien,100987783:N14,StopPoint:Node:2042462008,Line:Relation:1547967,26752,48.838417299999996,Bourg-la-Reine RER,N14,Raspail-Edgar Quinet,2.3307973,Route:Relation:1057572
Noctilien,100987783:N14,StopPoint:Node:983637942,Line:Relation:1547967,26753,48.835182499999995,Bourg-la-Reine RER,N14,Victor Considerant,2.3319229999999997,Route:Relation:1057572
Noctilien,100987783:N14,StopPoint:Node:983637944,Line:Relation:1547967,26701,48.8337885,Bourg-la-Reine RER,N14,Denfert Rochereau,2.331439,Route:Relation:1057572
Noctilien,100987783:N14,StopPoint:Node:813457965,Line:Relation:1547967,39752,48.831669999999995,Bourg-la-Reine RER,N14,Mouton - Duvernet,2.3300577,Route:Relation:1057572
Noctilien,100987783:N14,StopPoint:Node:813457962,Line:Relation:1547967,39751,48.829283499999995,Bourg-la-Reine RER,N14,Alésia - Maine,2.3279543,Route:Relation:1057572
Noctilien,100987783:N14,StopPoint:Node:813457936,Line:Relation:1547967,22967,48.8271528,Bourg-la-Reine RER,N14,Alésia–Général Leclerc,2.3263805,Route:Relation:1057572
Noctilien,100987783:N14,StopPoint:Node:5318124750,Line:Relation:1547967,40257,48.8238519,Bourg-la-Reine RER,N14,Porte d'Orléans,2.3255798999999997,Route:Relation:1057572
Noctilien,100987783:N14,StopPoint:Node:813461610,Line:Relation:1547967,23026,48.8227055,Bourg-la-Reine RER,N14,Porte d'Orléans-Métro,2.325113,Route:Relation:1057572
Noctilien,100987783:N14,StopPoint:Node:554936397,Line:Relation:1547967,36328,48.8184842,Bourg-la-Reine RER,N14,Gabriel Péri,2.3253592,Route:Relation:1057572
Noctilien,100987783:N14,StopPoint:Node:979068085,Line:Relation:1547967,26867,48.813531999999995,Bourg-la-Reine RER,N14,Léon Gambetta,2.3257224,Route:Relation:1057572
Noctilien,100987783:N14,StopPoint:Node:979068206,Line:Relation:1547967,26977,48.8089097,Bourg-la-Reine RER,N14,Vache Noire,2.3263342,Route:Relation:1057572
Noctilien,100987783:N14,StopPoint:Node:979068043,Line:Relation:1547967,26975,48.805493399999996,Bourg-la-Reine RER,N14,Croix d'Arcueil,2.32528,Route:Relation:1057572
Noctilien,100987783:N14,StopPoint:Node:979068042,Line:Relation:1547967,28525,48.801429,Bourg-la-Reine RER,N14,Grange Ory,2.3236546,Route:Relation:1057572
Noctilien,100987783:N14,StopPoint:Node:2889080192,Line:Relation:1547967,28524,48.7988863,Bourg-la-Reine RER,N14,Carnot – Aristide Briand,2.3227311999999998,Route:Relation:1057572
Noctilien,100987783:N14,StopPoint:Node:1975742196,Line:Relation:1547967,22895,48.7956097,Bourg-la-Reine RER,N14,Marcel Bonnet,2.3214327,Route:Relation:1057572
Noctilien,100987783:N14,StopPoint:Node:1975742199,Line:Relation:1547967,22896,48.7936512,Bourg-la-Reine RER,N14,Pont Royal - RER,2.3207019,Route:Relation:1057572
Noctilien,100987783:N14,StopPoint:Node:3585584293,Line:Relation:1547967,28526,48.7897131,Bourg-la-Reine RER,N14,Cité Jardins,2.319152,Route:Relation:1057572
Noctilien,100987783:N14,StopPoint:Node:2889084803,Line:Relation:1547967,22897,48.7860474,Bourg-la-Reine RER,N14,Place de la Résistance - Charles De Gaulle,2.317198,Route:Relation:1057572
Noctilien,100987783:N14,StopPoint:Node:1639350770,Line:Relation:1547967,12319,48.7828555,Bourg-la-Reine RER,N14,Rue du 8 Mai 1945,2.3149085,Route:Relation:1057572
Noctilien,100987785:N12,StopPoint:Node:1036592698,Line:Relation:1547969,39459,48.831750799999995,Romainville–Carnot,N12,Billancourt,2.2379257999999997,Route:Relation:1057574
Noctilien,100987785:N12,StopPoint:Node:1440804042,Line:Relation:1547969,18052,48.8337686,Romainville–Carnot,N12,Marcel Sembat,2.2443872,Route:Relation:1057574
Noctilien,100987785:N12,StopPoint:Node:1005362300,Line:Relation:1547969,25510,48.834756299999995,Romainville–Carnot,N12,René Descartes,2.2474597,Route:Relation:1057574
Noctilien,100987785:N12,StopPoint:Node:1440804006,Line:Relation:1547969,25509,48.8361277,Romainville–Carnot,N12,Henri Martin,2.2518282,Route:Relation:1057574
Noctilien,100987785:N12,StopPoint:Node:1060104562,Line:Relation:1547969,37112,48.837250399999995,Romainville–Carnot,N12,Porte de Saint-Cloud – Murat,2.25883,Route:Relation:1057574
Noctilien,100987785:N12,StopPoint:Node:1025488892,Line:Relation:1547969,23520,48.8387775,Romainville–Carnot,N12,Versailles – Chardon Lagache,2.2623653,Route:Relation:1057574
Noctilien,100987785:N12,StopPoint:Node:2043512985,Line:Relation:1547969,29783,48.840988599999996,Romainville–Carnot,N12,Versailles – Exelmans,2.2656982,Route:Relation:1057574
Noctilien,100987785:N12,StopPoint:Node:2042462021,Line:Relation:1547969,8437,48.8428956,Romainville–Carnot,N12,Victorien Sardou,2.2692665,Route:Relation:1057574
Noctilien,100987785:N12,StopPoint:Node:2043512999,Line:Relation:1547969,8436,48.8449102,Romainville–Carnot,N12,Wilhem,2.2713292,Route:Relation:1057574
Noctilien,100987785:N12,StopPoint:Node:1827357920,Line:Relation:1547969,8443,48.8476843,Romainville–Carnot,N12,Pont Mirabeau,2.2741123,Route:Relation:1057574
Noctilien,100987785:N12,StopPoint:Node:29414560,Line:Relation:1547969,8438,48.8489454,Romainville–Carnot,N12,Degas,2.2753957,Route:Relation:1057574
Noctilien,100987785:N12,StopPoint:Node:1804882119,Line:Relation:1547969,25504,48.850934699999996,Romainville–Carnot,N12,Radio France – Pont de Grenelle,2.2779927,Route:Relation:1057574
Noctilien,100987785:N12,StopPoint:Node:976872869,Line:Relation:1547969,35805,48.850912,Romainville–Carnot,N12,Pont de Grenelle – Maurice Bourdet,2.2788151,Route:Relation:1057574
Noctilien,100987785:N12,StopPoint:Node:989024767,Line:Relation:1547969,37368,48.8488086,Romainville–Carnot,N12,Pont de Grenelle – Place Fernand Forest,2.2822567,Route:Relation:1057574
Noctilien,100987785:N12,StopPoint:Node:3531825587,Line:Relation:1547969,26605,48.846542199999995,Romainville–Carnot,N12,Charles Michels,2.2866375,Route:Relation:1057574
Noctilien,100987785:N12,StopPoint:Node:3542522190,Line:Relation:1547969,26603,48.8469647,Romainville–Carnot,N12,Avenue Émile Zola,2.2953866,Route:Relation:1057574
Noctilien,100987785:N12,StopPoint:Node:966236471,Line:Relation:1547969,22747,48.8411046,Romainville–Carnot,N12,Pasteur–Falguière,2.3138036,Route:Relation:1057574
Noctilien,100987785:N12,StopPoint:Node:966236473,Line:Relation:1547969,28238,48.8405558,Romainville–Carnot,N12,Armorique–Musée Postal,2.3156612,Route:Relation:1057574
Noctilien,100987785:N12,StopPoint:Node:968151943,Line:Relation:1547969,37390,48.8418718,Romainville–Carnot,N12,Gare Montparnasse,2.3204213,Route:Relation:1057574
Noctilien,100987785:N12,StopPoint:Node:2069903772,Line:Relation:1547969,37566,48.843623199999996,Romainville–Carnot,N12,Place du 18 Juin 1940,2.3235330999999997,Route:Relation:1057574
Noctilien,100987785:N12,StopPoint:Node:2574759536,Line:Relation:1547969,22639,48.8443937,Romainville–Carnot,N12,Rennes - Littré,2.3244659999999997,Route:Relation:1057574
Noctilien,100987785:N12,StopPoint:Node:5351500421,Line:Relation:1547969,37140,48.8466349,Romainville–Carnot,N12,Rennes - Saint-Placide,2.3266773,Route:Relation:1057574
Noctilien,100987785:N12,StopPoint:Node:973577566,Line:Relation:1547969,22642,48.8492896,Romainville–Carnot,N12,Rennes - D'Assas,2.3291228999999998,Route:Relation:1057574
Noctilien,100987785:N12,StopPoint:Node:973577562,Line:Relation:1547969,20123,48.8512874,Romainville–Carnot,N12,Michel Debré,2.3309515999999997,Route:Relation:1057574
Noctilien,100987785:N12,StopPoint:Node:973577561,Line:Relation:1547969,28529,48.8526089,Romainville–Carnot,N12,Bonaparte - Saint-Germain,2.3335342,Route:Relation:1057574
Noctilien,100987785:N12,StopPoint:Node:2078035939,Line:Relation:1547969,28423,48.8529056,Romainville–Carnot,N12,Seine - Buci,2.3365858999999998,Route:Relation:1057574
Noctilien,100987785:N12,StopPoint:Node:1692424971,Line:Relation:1547969,28026,48.852131799999995,Romainville–Carnot,N12,Saint-Germain - Odéon,2.3397490999999997,Route:Relation:1057574
Noctilien,100987785:N12,StopPoint:Node:831428180,Line:Relation:1547969,36484,48.853071799999995,Romainville–Carnot,N12,Saint-Michel - Saint-Germain,2.3440783,Route:Relation:1057574
Noctilien,100987785:N12,StopPoint:Node:831428176,Line:Relation:1547969,22644,48.855761099999995,Romainville–Carnot,N12,Cité - Palais de Justice,2.3463229,Route:Relation:1057574
Noctilien,100987785:N12,StopPoint:Node:697185101,Line:Relation:1547969,19741,48.858310499999995,Romainville–Carnot,N12,Châtelet,2.3482290999999997,Route:Relation:1057574
Noctilien,100987785:N12,StopPoint:Node:697185101,Line:Relation:1547969,41401,48.858310499999995,Romainville–Carnot,N12,Châtelet,2.3482290999999997,Route:Relation:1057574
Noctilien,100987785:N12,StopPoint:Node:5009848722,Line:Relation:1547969,37538,48.8611175,Romainville–Carnot,N12,Les Halles - Centre Georges Pompidou,2.3497672,Route:Relation:1057574
Noctilien,100987785:N12,StopPoint:Node:808486050,Line:Relation:1547969,37536,48.8639328,Romainville–Carnot,N12,Turbigo–Etienne Marcel,2.3513569,Route:Relation:1057574
Noctilien,100987785:N12,StopPoint:Node:808486003,Line:Relation:1547969,22984,48.865675599999996,Romainville–Carnot,N12,Réaumur - Sébastopol,2.3523315,Route:Relation:1057574
Noctilien,100987785:N12,StopPoint:Node:813027531,Line:Relation:1547969,24791,48.865732099999995,Romainville–Carnot,N12,Réaumur − Arts et Métiers,2.3545236,Route:Relation:1057574
Noctilien,100987785:N12,StopPoint:Node:1261068386,Line:Relation:1547969,39463,48.864928299999995,Romainville–Carnot,N12,Square du Temple — Mairie du 3ème - Carreau du Temple,2.3600564,Route:Relation:1057574
Noctilien,100987785:N12,StopPoint:Node:1261068386,Line:Relation:1547969,415286,48.864928299999995,Romainville–Carnot,N12,Square du Temple — Mairie du 3ème - Carreau du Temple,2.3600564,Route:Relation:1057574
Noctilien,100987785:N12,StopPoint:Node:1261068387,Line:Relation:1547969,40848,48.866136,Romainville–Carnot,N12,Turbigo—République,2.3612740999999997,Route:Relation:1057574
Noctilien,100987785:N12,StopPoint:Node:1261068393,Line:Relation:1547969,28400,48.8666866,Romainville–Carnot,N12,République,2.3642266,Route:Relation:1057574
Noctilien,100987785:N12,StopPoint:Node:2878817144,Line:Relation:1547969,37570,48.8661526,Romainville–Carnot,N12,Saint-Maur - Jean Aicard,2.3795522,Route:Relation:1057574
Noctilien,100987785:N12,StopPoint:Node:2124630284,Line:Relation:1547969,37575,48.8669738,Romainville–Carnot,N12,Belleville - Ménilmontant,2.3831048,Route:Relation:1057574
Noctilien,100987785:N12,StopPoint:Node:4907297621,Line:Relation:1547969,39465,48.8689034,Romainville–Carnot,N12,Couronnes,2.3810077,Route:Relation:1057574
Noctilien,100987785:N12,StopPoint:Node:2878817117,Line:Relation:1547969,26664,48.8722013,Romainville–Carnot,N12,Belleville,2.3775318999999997,Route:Relation:1057574
Noctilien,100987785:N12,StopPoint:Node:4920241421,Line:Relation:1547969,39462,48.8737445,Romainville–Carnot,N12,Pyrénées,2.3851115,Route:Relation:1057574
Noctilien,100987785:N12,StopPoint:Node:2878817123,Line:Relation:1547969,26666,48.8749787,Romainville–Carnot,N12,Jourdain,2.3891239,Route:Relation:1057574
Noctilien,100987785:N12,StopPoint:Node:2878817135,Line:Relation:1547969,39461,48.8752271,Romainville–Carnot,N12,Pixérécourt,2.3956785,Route:Relation:1057574
Noctilien,100987785:N12,StopPoint:Node:2206863791,Line:Relation:1547969,36684,48.8755355,Romainville–Carnot,N12,Pelleport - Belleville,2.3994386999999997,Route:Relation:1057574
Noctilien,100987785:N12,StopPoint:Node:2042462307,Line:Relation:1547969,39460,48.8772382,Romainville–Carnot,N12,Porte des Lilas,2.4074063,Route:Relation:1057574
Noctilien,100987785:N12,StopPoint:Node:2878817125,Line:Relation:1547969,36896,48.8785313,Romainville–Carnot,N12,Les Bruyères,2.4115848,Route:Relation:1057574
Noctilien,100987785:N12,StopPoint:Node:2878817125,Line:Relation:1547969,36987,48.8785313,Romainville–Carnot,N12,Les Bruyères,2.4115848,Route:Relation:1057574
Noctilien,100987785:N12,StopPoint:Node:687536565,Line:Relation:1547969,35871,48.879702699999996,Romainville–Carnot,N12,Mairie des Lilas,2.416695,Route:Relation:1057574
Noctilien,100987785:N12,StopPoint:Node:687538455,Line:Relation:1547969,425958,48.8809961,Romainville–Carnot,N12,Joseph Dépinay,2.4255633999999997,Route:Relation:1057574
Noctilien,100987785:N12,StopPoint:Node:2878817119,Line:Relation:1547969,21189,48.8834247,Romainville–Carnot,N12,Carnot,2.4405018999999997,Route:Relation:1057574
Noctilien,100987756:N23,StopPoint:Node:2124630284,Line:Relation:1547965,37575,48.8669738,Chelles–Gournay RER,N23,Belleville - Ménilmontant,2.3831048,Route:Relation:1057575
Noctilien,100987756:N23,StopPoint:Node:4920241421,Line:Relation:1547965,39462,48.8737445,Chelles–Gournay RER,N23,Pyrénées,2.3851115,Route:Relation:1057575
Noctilien,100987756:N23,StopPoint:Node:4907297621,Line:Relation:1547965,39465,48.8689034,Chelles–Gournay RER,N23,Couronnes,2.3810077,Route:Relation:1057575
Noctilien,100987756:N23,StopPoint:Node:697185101,Line:Relation:1547965,19741,48.858310499999995,Chelles–Gournay RER,N23,Châtelet,2.3482290999999997,Route:Relation:1057575
Noctilien,100987756:N23,StopPoint:Node:697185101,Line:Relation:1547965,41401,48.858310499999995,Chelles–Gournay RER,N23,Châtelet,2.3482290999999997,Route:Relation:1057575
Noctilien,100987756:N23,StopPoint:Node:808486127,Line:Relation:1547965,37538,48.8610207,Chelles–Gournay RER,N23,Les Halles - Centre Georges Pompidou,2.3497198,Route:Relation:1057575
Noctilien,100987756:N23,StopPoint:Node:808486050,Line:Relation:1547965,37536,48.8639328,Chelles–Gournay RER,N23,Turbigo–Etienne Marcel,2.3513569,Route:Relation:1057575
Noctilien,100987756:N23,StopPoint:Node:808486003,Line:Relation:1547965,22984,48.865675599999996,Chelles–Gournay RER,N23,Réaumur - Sébastopol,2.3523315,Route:Relation:1057575
Noctilien,100987756:N23,StopPoint:Node:813027531,Line:Relation:1547965,24791,48.865732099999995,Chelles–Gournay RER,N23,Réaumur − Arts et Métiers,2.3545236,Route:Relation:1057575
Noctilien,100987756:N23,StopPoint:Node:1261068386,Line:Relation:1547965,39463,48.864928299999995,Chelles–Gournay RER,N23,Square du Temple — Mairie du 3ème - Carreau du Temple,2.3600564,Route:Relation:1057575
Noctilien,100987756:N23,StopPoint:Node:1261068386,Line:Relation:1547965,415286,48.864928299999995,Chelles–Gournay RER,N23,Square du Temple — Mairie du 3ème - Carreau du Temple,2.3600564,Route:Relation:1057575
Noctilien,100987756:N23,StopPoint:Node:1261068387,Line:Relation:1547965,40848,48.866136,Chelles–Gournay RER,N23,Turbigo—République,2.3612740999999997,Route:Relation:1057575
Noctilien,100987756:N23,StopPoint:Node:1261068393,Line:Relation:1547965,28400,48.8666866,Chelles–Gournay RER,N23,République,2.3642266,Route:Relation:1057575
Noctilien,100987766:N43,StopPoint:Node:2549984379,Line:Relation:6955549,40022,48.875647699999995,Gare de Sarcelles - Sainte-Brice,N43,Gare de l'Est,2.3575641,Route:Relation:1057576
Noctilien,100987766:N43,StopPoint:Node:2042462310,Line:Relation:6955549,39925,48.8777526,Gare de Sarcelles - Sainte-Brice,N43,Valenciennes,2.3564376,Route:Relation:1057576
Noctilien,100987766:N43,StopPoint:Node:884493081,Line:Relation:6955549,17567,48.8808347,Gare de Sarcelles - Sainte-Brice,N43,Gare du Nord,2.3579388,Route:Relation:1057576
Noctilien,100987766:N43,StopPoint:Node:891069015,Line:Relation:6955549,39803,48.8810529,Gare de Sarcelles - Sainte-Brice,N43,Gare du Nord,2.3579434999999997,Route:Relation:1057576
Noctilien,100987766:N43,StopPoint:Node:2281243446,Line:Relation:6955549,39802,48.8906554,Gare de Sarcelles - Sainte-Brice,N43,Ordener - Marx Dormoy,2.3600336,Route:Relation:1057576
Noctilien,100987766:N43,StopPoint:Node:2042462381,Line:Relation:6955549,28006,48.8927432,Gare de Sarcelles - Sainte-Brice,N43,Les Roses,2.3598314,Route:Relation:1057576
Noctilien,100987766:N43,StopPoint:Node:2042462387,Line:Relation:6955549,8452,48.8948852,Gare de Sarcelles - Sainte-Brice,N43,Boucry,2.359473,Route:Relation:1057576
RATP,100100350:350,StopPoint:Node:5137405225,Line:Relation:7466937,39804,48.879328,Gare de l'Est,350,La Fayette - Dunkerque,2.3557554,Route:Relation:1057578
RATP,100100350:350,StopPoint:Node:891069015,Line:Relation:7466937,39803,48.8810529,Gare de l'Est,350,Gare du Nord,2.3579434999999997,Route:Relation:1057578
RATP,100100038:38,StopPoint:Node:808486071,Line:Relation:1057488,39926,48.881133399999996,Porte d'Orléans,38,Gare du Nord,2.3575727,Route:Relation:1066789
RATP,100100038:38,StopPoint:Node:5137405225,Line:Relation:1057488,39804,48.879328,Porte d'Orléans,38,La Fayette - Dunkerque,2.3557554,Route:Relation:1066789
RATP,100100038:38,StopPoint:Node:813027561,Line:Relation:1057488,8425,48.876312899999995,Porte d'Orléans,38,Gare de l'Est,2.3567488,Route:Relation:1066789
RATP,100100038:38,StopPoint:Node:813027526,Line:Relation:1057488,22745,48.874539899999995,Porte d'Orléans,38,Magenta - Saint-Martin,2.358597,Route:Relation:1066789
RATP,100100038:38,StopPoint:Node:813027552,Line:Relation:1057488,22975,48.871972899999996,Porte d'Orléans,38,Mairie du 10e,2.3573147999999997,Route:Relation:1066789
RATP,100100038:38,StopPoint:Node:813027519,Line:Relation:1057488,37122,48.868521,Porte d'Orléans,38,Porte Saint-Martin,2.3553656999999997,Route:Relation:1066789
RATP,100100038:38,StopPoint:Node:813027531,Line:Relation:1057488,24791,48.865732099999995,Porte d'Orléans,38,Réaumur − Arts et Métiers,2.3545236,Route:Relation:1066789
RATP,100100038:38,StopPoint:Node:706128129,Line:Relation:1057488,28262,48.8629143,Porte d'Orléans,38,Grenier Saint-Lazare - Quartier de l'Horloge,2.3542841,Route:Relation:1066789
RATP,100100038:38,StopPoint:Node:1014690200,Line:Relation:1057488,28259,48.8598612,Porte d'Orléans,38,Centre Georges Pompidou,2.3525853999999997,Route:Relation:1066789
RATP,100100038:38,StopPoint:Node:813027557,Line:Relation:1057488,39924,48.8574683,Porte d'Orléans,38,Hôtel de Ville,2.3506207,Route:Relation:1066789
RATP,100100038:38,StopPoint:Node:813027557,Line:Relation:1057488,422524,48.8574683,Porte d'Orléans,38,Hôtel de Ville,2.3506207,Route:Relation:1066789
RATP,100100038:38,StopPoint:Node:827319995,Line:Relation:1057488,39779,48.8576274,Porte d'Orléans,38,Châtelet,2.3483969,Route:Relation:1066789
RATP,100100038:38,StopPoint:Node:827320004,Line:Relation:1057488,36492,48.8558534,Porte d'Orléans,38,Cité - Palais de Justice,2.3461144,Route:Relation:1066789
RATP,100100038:38,StopPoint:Node:676888667,Line:Relation:1057488,26619,48.8525918,Porte d'Orléans,38,Saint-Michel - Saint-Germain,2.3435859,Route:Relation:1066789
RATP,100100038:38,StopPoint:Node:638572250,Line:Relation:1057488,8432,48.8497208,Porte d'Orléans,38,Les Écoles,2.3421402,Route:Relation:1066789
RATP,100100038:38,StopPoint:Node:827320011,Line:Relation:1057488,36548,48.846361099999996,Porte d'Orléans,38,Luxembourg,2.3401536,Route:Relation:1066789
RATP,100100038:38,StopPoint:Node:5406580627,Line:Relation:1057488,22976,48.8435853,Porte d'Orléans,38,Auguste Comte,2.3386214,Route:Relation:1066789
RATP,100100038:38,StopPoint:Node:827320007,Line:Relation:1057488,22977,48.8421064,Porte d'Orléans,38,Val de Grâce,2.3378086,Route:Relation:1066789
RATP,100100038:38,StopPoint:Node:827320006,Line:Relation:1057488,39759,48.8400021,Porte d'Orléans,38,Observatoire - Port Royal,2.3364511,Route:Relation:1066789
RATP,100100038:38,StopPoint:Node:827319999,Line:Relation:1057488,39768,48.837023099999996,Porte d'Orléans,38,Hôpital Saint-Vincent de Paul,2.3348031,Route:Relation:1066789
RATP,100100038:38,StopPoint:Node:827320002,Line:Relation:1057488,34169,48.834959999999995,Porte d'Orléans,38,Denfert Rochereau - Arago,2.3328023,Route:Relation:1066789
RATP,100100038:38,StopPoint:Node:827320005,Line:Relation:1057488,22978,48.8339844,Porte d'Orléans,38,Denfert Rochereau,2.3319418,Route:Relation:1066789
RATP,100100038:38,StopPoint:Node:813457965,Line:Relation:1057488,39752,48.831669999999995,Porte d'Orléans,38,Mouton - Duvernet,2.3300577,Route:Relation:1066789
RATP,100100038:38,StopPoint:Node:813457962,Line:Relation:1057488,39751,48.829283499999995,Porte d'Orléans,38,Alésia - Maine,2.3279543,Route:Relation:1066789
RATP,100100038:38,StopPoint:Node:813457936,Line:Relation:1057488,22967,48.8271528,Porte d'Orléans,38,Alésia–Général Leclerc,2.3263805,Route:Relation:1066789
RATP,100100038:38,StopPoint:Node:813457945,Line:Relation:1057488,22972,48.8236606,Porte d'Orléans,38,Porte d'Orléans,2.3271623999999997,Route:Relation:1066789
RATP,100100038:38,StopPoint:Node:4610351352,Line:Relation:1057488,22966,48.8238214,Gare du Nord,38,Porte d'Orléans,2.3260623,Route:Relation:1066790
RATP,100100038:38,StopPoint:Node:831351258,Line:Relation:1057488,36547,48.827398599999995,Gare du Nord,38,Alésia–Général Leclerc,2.3268247,Route:Relation:1066790
RATP,100100038:38,StopPoint:Node:831351259,Line:Relation:1057488,22979,48.8308561,Gare du Nord,38,Mouton-Duvernet,2.3295974999999998,Route:Relation:1066790
RATP,100100038:38,StopPoint:Node:831351260,Line:Relation:1057488,22980,48.8325965,Gare du Nord,38,Denfert Rochereau - Daguerre,2.331137,Route:Relation:1066790
RATP,100100038:38,StopPoint:Node:831351262,Line:Relation:1057488,26866,48.834926499999995,Gare du Nord,38,Denfert Rochereau - Arago,2.3330911,Route:Relation:1066790
RATP,100100038:38,StopPoint:Node:360389290,Line:Relation:1057488,39769,48.837192699999996,Gare du Nord,38,Hôpital Saint-Vincent de Paul,2.3352257,Route:Relation:1066790
RATP,100100038:38,StopPoint:Node:831393962,Line:Relation:1057488,22981,48.839216199999996,Gare du Nord,38,Observatoire - Port Royal,2.3368279999999997,Route:Relation:1066790
RATP,100100038:38,StopPoint:Node:360389277,Line:Relation:1057488,22982,48.8421476,Gare du Nord,38,Val de Grâce,2.3380942,Route:Relation:1066790
RATP,100100038:38,StopPoint:Node:360389291,Line:Relation:1057488,22983,48.8436151,Gare du Nord,38,Auguste Comte,2.3388947,Route:Relation:1066790
RATP,100100038:38,StopPoint:Node:831393959,Line:Relation:1057488,22964,48.846022999999995,Gare du Nord,38,Luxembourg,2.3402198,Route:Relation:1066790
RATP,100100038:38,StopPoint:Node:638572251,Line:Relation:1057488,22962,48.849884499999995,Gare du Nord,38,Les Écoles,2.3425105999999998,Route:Relation:1066790
RATP,100100038:38,StopPoint:Node:831428180,Line:Relation:1057488,36484,48.853071799999995,Gare du Nord,38,Saint-Michel - Saint-Germain,2.3440783,Route:Relation:1066790
RATP,100100038:38,StopPoint:Node:831428176,Line:Relation:1057488,22644,48.855761099999995,Gare du Nord,38,Cité - Palais de Justice,2.3463229,Route:Relation:1066790
RATP,100100038:38,StopPoint:Node:697185100,Line:Relation:1057488,39789,48.858045999999995,Gare du Nord,38,Châtelet,2.3480794,Route:Relation:1066790
RATP,100100038:38,StopPoint:Node:5009848722,Line:Relation:1057488,37538,48.8611175,Gare du Nord,38,Les Halles - Centre Georges Pompidou,2.3497672,Route:Relation:1066790
RATP,100100038:38,StopPoint:Node:808486050,Line:Relation:1057488,37536,48.8639328,Gare du Nord,38,Turbigo–Etienne Marcel,2.3513569,Route:Relation:1066790
RATP,100100038:38,StopPoint:Node:808486003,Line:Relation:1057488,22984,48.865675599999996,Gare du Nord,38,Réaumur - Sébastopol,2.3523315,Route:Relation:1066790
RATP,100100038:38,StopPoint:Node:808486113,Line:Relation:1057488,22985,48.8684297,Gare du Nord,38,Strasbourg - Saint-Denis,2.3538948,Route:Relation:1066790
RATP,100100038:38,StopPoint:Node:808486080,Line:Relation:1057488,22986,48.8720074,Gare du Nord,38,Château d'Eau,2.355908,Route:Relation:1066790
RATP,100100038:38,StopPoint:Node:2490190440,Line:Relation:1057488,39800,48.8753464,Gare du Nord,38,Gare de l'Est,2.3578419,Route:Relation:1066790
RATP,100100038:38,StopPoint:Node:2042462310,Line:Relation:1057488,39925,48.8777526,Gare du Nord,38,Valenciennes,2.3564376,Route:Relation:1066790
RATP,100100038:38,StopPoint:Node:827624431,Line:Relation:1057488,39805,48.8807173,Gare du Nord,38,Gare du Nord,2.3570822,Route:Relation:1066790
RATP,100100028:28,StopPoint:Node:5070264560,Line:Relation:1066842,22965,48.8238768,Gare Saint-Lazare,28,Porte d'Orléans,2.3260777,Route:Relation:1066841
RATP,100100028:28,StopPoint:Node:831351258,Line:Relation:1066842,36547,48.827398599999995,Gare Saint-Lazare,28,Alésia–Général Leclerc,2.3268247,Route:Relation:1066841
RATP,100100028:28,StopPoint:Node:2044101789,Line:Relation:1066842,27082,48.8285493,Gare Saint-Lazare,28,Alésia–Maine,2.3267243,Route:Relation:1066841
RATP,100100028:28,StopPoint:Node:813502913,Line:Relation:1066842,27083,48.8320389,Gare Saint-Lazare,28,Mairie du 14e Arrondissement,2.3253141,Route:Relation:1066841
RATP,100100028:28,StopPoint:Node:813502927,Line:Relation:1066842,27077,48.8339441,Gare Saint-Lazare,28,Château–Mairie du 14e Arrondissement,2.3244792999999997,Route:Relation:1066841
RATP,100100028:28,StopPoint:Node:765999466,Line:Relation:1066842,27078,48.8358029,Gare Saint-Lazare,28,Losserand–Maine,2.3237262,Route:Relation:1066841
RATP,100100028:28,StopPoint:Node:765982202,Line:Relation:1066842,27075,48.838016599999996,Gare Saint-Lazare,28,Gaîté,2.3228744,Route:Relation:1066841
RATP,100100028:28,StopPoint:Node:765983569,Line:Relation:1066842,20099,48.8409432,Gare Saint-Lazare,28,Gare Montparnasse,2.3217084999999997,Route:Relation:1066841
RATP,100100028:28,StopPoint:Node:765985729,Line:Relation:1066842,28682,48.8428696,Gare Saint-Lazare,28,Place du 18 Juin 1940 - Rue du Départ,2.3239269,Route:Relation:1066841
RATP,100100028:28,StopPoint:Node:827520706,Line:Relation:1066842,27079,48.844474899999994,Gare Saint-Lazare,28,Place du 18 Juin 1940 - Rue de l'Arrivée,2.3223686999999997,Route:Relation:1066841
RATP,100100028:28,StopPoint:Node:827520679,Line:Relation:1066842,26783,48.8458299,Gare Saint-Lazare,28,Maine - Vaugirard,2.3188069,Route:Relation:1066841
RATP,100100028:28,StopPoint:Node:827520685,Line:Relation:1066842,8445,48.846582899999994,Gare Saint-Lazare,28,Hôpital des Enfants Malades,2.3155696,Route:Relation:1066841
RATP,100100028:28,StopPoint:Node:2044101791,Line:Relation:1066842,27087,48.8475602,Gare Saint-Lazare,28,Breteuil,2.3121777999999997,Route:Relation:1066841
RATP,100100028:28,StopPoint:Node:827520654,Line:Relation:1066842,27073,48.851014899999996,Gare Saint-Lazare,28,El Salvador,2.3113318,Route:Relation:1066841
RATP,100100028:28,StopPoint:Node:827520661,Line:Relation:1066842,27074,48.8512029,Gare Saint-Lazare,28,Fontenoy − Unesco,2.3074325,Route:Relation:1066841
RATP,100100028:28,StopPoint:Node:827520704,Line:Relation:1066842,26361,48.853018399999996,Gare Saint-Lazare,28,Duquesne − Lowendal,2.3082152,Route:Relation:1066841
RATP,100100028:28,StopPoint:Node:827520688,Line:Relation:1066842,39484,48.8546863,Gare Saint-Lazare,28,École Militaire,2.3062774,Route:Relation:1066841
RATP,100100028:28,StopPoint:Node:827520682,Line:Relation:1066842,41801,48.8568059,Gare Saint-Lazare,28,Invalides − La Tour Maubourg,2.3093976,Route:Relation:1066841
RATP,100100028:28,StopPoint:Node:827520665,Line:Relation:1066842,39483,48.860355999999996,Gare Saint-Lazare,28,La Tour Maubourg − Saint-Dominique,2.3102953,Route:Relation:1066841
RATP,100100028:28,StopPoint:Node:827520625,Line:Relation:1066842,39394,48.8619731,Gare Saint-Lazare,28,Pont des Invalides − Place de Finlande,2.3104598999999997,Route:Relation:1066841
RATP,100100028:28,StopPoint:Node:827520669,Line:Relation:1066842,28431,48.865589,Gare Saint-Lazare,28,Palais de la Découverte,2.3103848,Route:Relation:1066841
RATP,100100028:28,StopPoint:Node:827520648,Line:Relation:1066842,27332,48.8695776,Gare Saint-Lazare,28,Rond-Point des Champs-Élysées - Matignon,2.3114383,Route:Relation:1066841
RATP,100100028:28,StopPoint:Node:5070885929,Line:Relation:1066842,22998,48.8730754,Gare Saint-Lazare,28,Matignon - Saint-Honoré,2.3147618,Route:Relation:1066841
RATP,100100028:28,StopPoint:Node:827520645,Line:Relation:1066842,25398,48.8747104,Gare Saint-Lazare,28,Haussmann - Miromesnil,2.3145009,Route:Relation:1066841
RATP,100100028:28,StopPoint:Node:825260424,Line:Relation:1066842,41802,48.874852499999996,Gare Saint-Lazare,28,Saint-Augustin,2.3183257,Route:Relation:1066841
RATP,100100028:28,StopPoint:Node:827576253,Line:Relation:1066842,39477,48.8755028,Porte d'Orléans,28,Gare Saint-Lazare,2.3235953,Route:Relation:1066893
RATP,100100028:28,StopPoint:Node:817222305,Line:Relation:1066842,28523,48.8746128,Porte d'Orléans,28,Saint-Augustin,2.3213849,Route:Relation:1066893
RATP,100100028:28,StopPoint:Node:827576221,Line:Relation:1066842,27212,48.874036399999994,Porte d'Orléans,28,La Boétie - Miromesnil,2.3161433,Route:Relation:1066893
RATP,100100028:28,StopPoint:Node:826750539,Line:Relation:1066842,36545,48.873255,Porte d'Orléans,28,Saint-Philippe du Roule,2.31186,Route:Relation:1066893
RATP,100100028:28,StopPoint:Node:827576242,Line:Relation:1066842,22970,48.8694036,Porte d'Orléans,28,Rond-Point des Champs-Élysées - Franklin D. Roosevelt,2.3099947,Route:Relation:1066893
RATP,100100028:28,StopPoint:Node:827576238,Line:Relation:1066842,22969,48.8684708,Porte d'Orléans,28,Rond-Point des Champs-Élysées,2.310044,Route:Relation:1066893
RATP,100100028:28,StopPoint:Node:831157914,Line:Relation:1066842,39395,48.8619761,Porte d'Orléans,28,Pont des Invalides − Place de Finlande,2.3102388,Route:Relation:1066893
RATP,100100028:28,StopPoint:Node:831157903,Line:Relation:1066842,39481,48.8596836,Porte d'Orléans,28,La Tour Maubourg − Saint-Dominique,2.3100205,Route:Relation:1066893
RATP,100100028:28,StopPoint:Node:831157907,Line:Relation:1066842,22968,48.8569427,Porte d'Orléans,28,Invalides − La Tour Maubourg,2.3092874,Route:Relation:1066893
RATP,100100028:28,StopPoint:Node:831157912,Line:Relation:1066842,39485,48.8556204,Porte d'Orléans,28,Rue Cler,2.3073399,Route:Relation:1066893
RATP,100100028:28,StopPoint:Node:827520630,Line:Relation:1066842,26346,48.854011,Porte d'Orléans,28,École Militaire,2.3062926,Route:Relation:1066893
RATP,100100028:28,StopPoint:Node:827520686,Line:Relation:1066842,27086,48.8524922,Porte d'Orléans,28,Duquesne − Lowendal,2.3081057,Route:Relation:1066893
RATP,100100028:28,StopPoint:Node:831294977,Line:Relation:1066842,27081,48.8510607,Porte d'Orléans,28,Fontenoy − Unesco,2.307381,Route:Relation:1066893
RATP,100100028:28,StopPoint:Node:831294981,Line:Relation:1066842,26348,48.850871,Porte d'Orléans,28,El Salvador,2.3112285999999997,Route:Relation:1066893
RATP,100100028:28,StopPoint:Node:831294991,Line:Relation:1066842,39479,48.847049,Porte d'Orléans,28,Breteuil,2.3110926,Route:Relation:1066893
RATP,100100028:28,StopPoint:Node:259856862,Line:Relation:1066842,25746,48.8466282,Porte d'Orléans,28,Hôpital des Enfants Malades,2.3161638,Route:Relation:1066893
RATP,100100028:28,StopPoint:Node:831294979,Line:Relation:1066842,26787,48.8456451,Porte d'Orléans,28,Maine - Vaugirard,2.3186118,Route:Relation:1066893
RATP,100100028:28,StopPoint:Node:831294976,Line:Relation:1066842,26757,48.844245699999995,Porte d'Orléans,28,Place du 18 Juin 1940 - Rue de l'Arrivée,2.3223610999999997,Route:Relation:1066893
RATP,100100028:28,StopPoint:Node:765986101,Line:Relation:1066842,37360,48.8429341,Porte d'Orléans,28,Place du 18 Juin 1940 - Rue du Départ,2.3236233,Route:Relation:1066893
RATP,100100028:28,StopPoint:Node:260016906,Line:Relation:1066842,37359,48.8407276,Porte d'Orléans,28,Gare Montparnasse,2.3213414,Route:Relation:1066893
RATP,100100028:28,StopPoint:Node:765998625,Line:Relation:1066842,39480,48.838434799999995,Porte d'Orléans,28,Gaîté,2.3221998,Route:Relation:1066893
RATP,100100028:28,StopPoint:Node:766000034,Line:Relation:1066842,27085,48.8365711,Porte d'Orléans,28,Losserand–Maine,2.323131,Route:Relation:1066893
RATP,100100028:28,StopPoint:Node:831307123,Line:Relation:1066842,27080,48.8336038,Porte d'Orléans,28,Château–Mairie du 14e Arrondissement,2.3243882,Route:Relation:1066893
RATP,100100028:28,StopPoint:Node:831307121,Line:Relation:1066842,27076,48.8320441,Porte d'Orléans,28,Mairie du 14e Arrondissement,2.3250238999999997,Route:Relation:1066893
RATP,100100028:28,StopPoint:Node:831307124,Line:Relation:1066842,27084,48.8283055,Porte d'Orléans,28,Alésia–Maine,2.326578,Route:Relation:1066893
RATP,100100028:28,StopPoint:Node:813457936,Line:Relation:1066842,22967,48.8271528,Porte d'Orléans,28,Alésia–Général Leclerc,2.3263805,Route:Relation:1066893
RATP,100100028:28,StopPoint:Node:813457945,Line:Relation:1066842,22972,48.8236606,Porte d'Orléans,28,Porte d'Orléans,2.3271623999999997,Route:Relation:1066893
RATP,100100042:42,StopPoint:Node:985449421,Line:Relation:1057570,37358,48.8397939,Gare du Nord,42,Hôpital Européen Georges Pompidou,2.2723994999999997,Route:Relation:1083263
RATP,100100042:42,StopPoint:Node:985449311,Line:Relation:1057570,25449,48.8393595,Gare du Nord,42,Rue Leblanc,2.2752352,Route:Relation:1083263
RATP,100100042:42,StopPoint:Node:985449390,Line:Relation:1057570,39326,48.8379766,Gare du Nord,42,Leblanc - Delbarre,2.2753905,Route:Relation:1083263
RATP,100100042:42,StopPoint:Node:985449338,Line:Relation:1057570,25749,48.8373133,Gare du Nord,42,Place Balard,2.2774919,Route:Relation:1083263
RATP,100100042:42,StopPoint:Node:450721733,Line:Relation:1057570,23465,48.8386728,Gare du Nord,42,Saint-Charles - Balard,2.2786956,Route:Relation:1083263
RATP,100100042:42,StopPoint:Node:4704248644,Line:Relation:1057570,23464,48.8416721,Gare du Nord,42,Rond-Point Saint-Charles,2.2812867999999997,Route:Relation:1083263
RATP,100100042:42,StopPoint:Node:985449334,Line:Relation:1057570,23461,48.843578799999996,Gare du Nord,42,Convention - Boucicaut,2.2829261,Route:Relation:1083263
RATP,100100042:42,StopPoint:Node:985449268,Line:Relation:1057570,23477,48.847025599999995,Gare du Nord,42,Charles Michels,2.2859488999999997,Route:Relation:1083263
RATP,100100042:42,StopPoint:Node:985449235,Line:Relation:1057570,412993,48.8491979,Gare du Nord,42,Théatre,2.2878279999999998,Route:Relation:1083263
RATP,100100042:42,StopPoint:Node:443481015,Line:Relation:1057570,40078,48.8518092,Gare du Nord,42,Docteur Finlay,2.2901249999999997,Route:Relation:1083263
RATP,100100042:42,StopPoint:Node:989065432,Line:Relation:1057570,23457,48.851976,Gare du Nord,42,Dupleix,2.2920058,Route:Relation:1083263
RATP,100100042:42,StopPoint:Node:989065473,Line:Relation:1057570,23462,48.853043899999996,Gare du Nord,42,Desaix,2.2933186,Route:Relation:1083263
RATP,100100042:42,StopPoint:Node:989065313,Line:Relation:1057570,26307,48.8572549,Gare du Nord,42,Rapp – La Bourdonnais,2.2999692,Route:Relation:1083263
RATP,100100042:42,StopPoint:Node:646559102,Line:Relation:1057570,22770,48.8650774,Gare du Nord,42,Alma – Marceau,2.3027492,Route:Relation:1083263
RATP,100100042:42,StopPoint:Node:1300458214,Line:Relation:1057570,22771,48.867152399999995,Gare du Nord,42,Montaigne - François 1er,2.3067325,Route:Relation:1083263
RATP,100100042:42,StopPoint:Node:2662224913,Line:Relation:1057570,27334,48.8678992,Gare du Nord,42,Champs-Élysées Clemenceau,2.3130121999999997,Route:Relation:1083263
RATP,100100042:42,StopPoint:Node:1212027115,Line:Relation:1057570,27333,48.8656246,Gare du Nord,42,Concorde - Cours la Reine,2.3201947,Route:Relation:1083263
RATP,100100042:42,StopPoint:Node:1315326998,Line:Relation:1057570,30010,48.871657899999995,Gare du Nord,42,Opéra,2.3326786999999998,Route:Relation:1083263
RATP,100100042:42,StopPoint:Node:827624431,Line:Relation:1057570,39805,48.8807173,Gare du Nord,42,Gare du Nord,2.3570822,Route:Relation:1083263
RATP,100100042:42,StopPoint:Node:830583623,Line:Relation:1057570,36540,48.876705099999995,Hôpital Européen Georges Pompidou,42,Châteaudun - Lamartine,2.3414775,Route:Relation:1083264
RATP,100100042:42,StopPoint:Node:830583610,Line:Relation:1057570,39325,48.8725812,Hôpital Européen Georges Pompidou,42,Opéra - Scribe,2.3308708,Route:Relation:1083264
RATP,100100042:42,StopPoint:Node:831025083,Line:Relation:1057570,23450,48.8661975,Hôpital Européen Georges Pompidou,42,Concorde − Cours la Reine,2.3193706,Route:Relation:1083264
RATP,100100042:42,StopPoint:Node:831025085,Line:Relation:1057570,23466,48.8681996,Hôpital Européen Georges Pompidou,42,Champs-Élysées Clémenceau,2.3130438,Route:Relation:1083264
RATP,100100042:42,StopPoint:Node:831025088,Line:Relation:1057570,22772,48.8687441,Hôpital Européen Georges Pompidou,42,Rond-Point des Champs-Élysées,2.3094937,Route:Relation:1083264
RATP,100100042:42,StopPoint:Node:830630337,Line:Relation:1057570,26179,48.8668906,Hôpital Européen Georges Pompidou,42,Montaigne - François 1er,2.3058767,Route:Relation:1083264
RATP,100100042:42,StopPoint:Node:989065350,Line:Relation:1057570,23317,48.8574346,Hôpital Européen Georges Pompidou,42,Rapp – La Bourdonnais,2.2994944,Route:Relation:1083264
RATP,100100042:42,StopPoint:Node:985449395,Line:Relation:1057570,23478,48.8454419,Hôpital Européen Georges Pompidou,42,Charles Michels,2.2877544999999997,Route:Relation:1083264
RATP,100100042:42,StopPoint:Node:450721353,Line:Relation:1057570,28678,48.8391393,Hôpital Européen Georges Pompidou,42,Lourmel - Félix Faure,2.282345,Route:Relation:1083264
RATP,100100042:42,StopPoint:Node:450721133,Line:Relation:1057570,28677,48.837690099999996,Hôpital Européen Georges Pompidou,42,Vasco de Gama - Lourmel,2.282034,Route:Relation:1083264
RATP,100100042:42,StopPoint:Node:985449305,Line:Relation:1057570,25747,48.8363687,Hôpital Européen Georges Pompidou,42,Balard - Lecourbe,2.2809863999999997,Route:Relation:1083264
RATP,100100042:42,StopPoint:Node:985449416,Line:Relation:1057570,25450,48.8369643,Hôpital Européen Georges Pompidou,42,Place Balard,2.2782201,Route:Relation:1083264
RATP,100100042:42,StopPoint:Node:985449386,Line:Relation:1057570,39398,48.839932499999996,Hôpital Européen Georges Pompidou,42,Hôpital Européen Georges Pompidou,2.2724352999999997,Route:Relation:1083264
Noctilien,100987760:N21,StopPoint:Node:930361051,Line:Relation:6789691,8199,48.768453,Châtelet,N21,Normandie,2.3110578,Route:Relation:1083315
Noctilien,100987760:N21,StopPoint:Node:492901677,Line:Relation:6789691,8206,48.770789,Châtelet,N21,La Fontaine,2.3123,Route:Relation:1083315
Noctilien,100987760:N21,StopPoint:Node:930358508,Line:Relation:6789691,8208,48.7731414,Châtelet,N21,Les Cottages,2.3130105999999997,Route:Relation:1083315
Noctilien,100987760:N21,StopPoint:Node:3648034382,Line:Relation:6789691,8334,48.806711299999996,Châtelet,N21,Hôtel de Ville d'Arcueil,2.3368876,Route:Relation:1083315
Noctilien,100987760:N21,StopPoint:Node:922779440,Line:Relation:6789691,26869,48.808090199999995,Châtelet,N21,Laplace RER,2.3329491,Route:Relation:1083315
Noctilien,100987760:N21,StopPoint:Node:979068071,Line:Relation:6789691,26868,48.811000199999995,Châtelet,N21,Vache Noire,2.3267764,Route:Relation:1083315
Noctilien,100987760:N21,StopPoint:Node:979068156,Line:Relation:6789691,40791,48.813624,Châtelet,N21,Léon Gambetta,2.326091,Route:Relation:1083315
Noctilien,100987760:N21,StopPoint:Node:554915792,Line:Relation:6789691,37800,48.818135,Châtelet,N21,Gabriel Péri,2.3257589,Route:Relation:1083315
Noctilien,100987760:N21,StopPoint:Node:2670774958,Line:Relation:6789691,22973,48.8236181,Châtelet,N21,Porte d'Orléans,2.325796,Route:Relation:1083315
Noctilien,100987760:N21,StopPoint:Node:831351260,Line:Relation:6789691,22980,48.8325965,Châtelet,N21,Denfert Rochereau - Daguerre,2.331137,Route:Relation:1083315
Noctilien,100987760:N21,StopPoint:Node:360389291,Line:Relation:6789691,22983,48.8436151,Châtelet,N21,Auguste Comte,2.3388947,Route:Relation:1083315
Noctilien,100987760:N21,StopPoint:Node:831393959,Line:Relation:6789691,22964,48.846022999999995,Châtelet,N21,Luxembourg,2.3402198,Route:Relation:1083315
Noctilien,100987760:N21,StopPoint:Node:638572251,Line:Relation:6789691,22962,48.849884499999995,Châtelet,N21,Les Écoles,2.3425105999999998,Route:Relation:1083315
Noctilien,100987760:N21,StopPoint:Node:831428180,Line:Relation:6789691,36484,48.853071799999995,Châtelet,N21,Saint-Michel - Saint-Germain,2.3440783,Route:Relation:1083315
Noctilien,100987760:N21,StopPoint:Node:2079093349,Line:Relation:6789691,39780,48.8569083,Châtelet,N21,Châtelet,2.3479776,Route:Relation:1083315
Noctilien,100987760:N21,StopPoint:Node:2079093349,Line:Relation:6789691,423997,48.8569083,Châtelet,N21,Châtelet,2.3479776,Route:Relation:1083315
Noctilien,100987760:N21,StopPoint:Node:5471115143,Line:Relation:6789691,22899,48.7773299,Châtelet,N21,Petit Chambord - Lycée Lakanal,2.3144586,Route:Relation:1083315
Noctilien,100987760:N21,StopPoint:Node:360389290,Line:Relation:6789691,39769,48.837192699999996,Châtelet,N21,Hôpital Saint-Vincent de Paul,2.3352257,Route:Relation:1083315
Noctilien,100987760:N21,StopPoint:Node:5170020798,Line:Relation:6789691,35773,48.754198099999996,Châtelet,N21,Auguste Mounié - Division Leclerc,2.3054139,Route:Relation:1083315
Noctilien,100987760:N21,StopPoint:Node:1606161332,Line:Relation:6789691,36595,48.7384801,Châtelet,N21,Saussaye - Mirabeau,2.2981623,Route:Relation:1083315
Noctilien,100987760:N21,StopPoint:Node:979833066,Line:Relation:6789691,28581,48.7980121,Châtelet,N21,Cousin de Méricourt,2.3331054,Route:Relation:1083315
Noctilien,100987760:N21,StopPoint:Node:2140174269,Line:Relation:6789691,8044,48.8018463,Châtelet,N21,Auguste Delaune,2.3381290999999997,Route:Relation:1083315
Noctilien,100987760:N21,StopPoint:Node:831428176,Line:Relation:6789691,22644,48.855761099999995,Châtelet,N21,Cité - Palais de Justice,2.3463229,Route:Relation:1083315
Noctilien,100987760:N21,StopPoint:Node:1606161336,Line:Relation:6789691,8202,48.7349295,Châtelet,N21,Biarritz,2.2945708,Route:Relation:1083315
Noctilien,100987760:N21,StopPoint:Node:1606161308,Line:Relation:6789691,39611,48.7444213,Châtelet,N21,Blanche de Castille,2.3033216,Route:Relation:1083315
